{
  "metadata": {
    "source": "SAMPLE DATA - Replace with HIFLD for production",
    "note": "This is sample data for testing the SEO page generator",
    "downloadedAt": "2025-12-20T22:26:54.341Z",
    "totalRecords": 549
  },
  "stations": [
    {
      "id": 1,
      "name": "Birmingham Volunteer Fire Department",
      "address": "5879 Main Street",
      "city": "Birmingham",
      "state": "AL",
      "zip": "47011",
      "county": "Birmingham County",
      "type": "Volunteer",
      "phone": "",
      "latitude": 33.757109,
      "longitude": -88.364249,
      "status": "OPEN"
    },
    {
      "id": 2,
      "name": "Birmingham Volunteer Fire Department - Station 2",
      "address": "7100 Main Street",
      "city": "Birmingham",
      "state": "AL",
      "zip": "19647",
      "county": "Birmingham County",
      "type": "Combination",
      "phone": "",
      "latitude": 32.305234,
      "longitude": -85.76667,
      "status": "OPEN"
    },
    {
      "id": 3,
      "name": "Montgomery Fire District",
      "address": "2424 Main Street",
      "city": "Montgomery",
      "state": "AL",
      "zip": "89187",
      "county": "Montgomery County",
      "type": "Paid",
      "phone": "",
      "latitude": 33.656251,
      "longitude": -85.742576,
      "status": "OPEN"
    },
    {
      "id": 4,
      "name": "Montgomery Volunteer Fire Department - Station 2",
      "address": "1463 Main Street",
      "city": "Montgomery",
      "state": "AL",
      "zip": "48703",
      "county": "Montgomery County",
      "type": "Paid",
      "phone": "",
      "latitude": 30.787711,
      "longitude": -88.304731,
      "status": "OPEN"
    },
    {
      "id": 5,
      "name": "Huntsville Fire-Rescue",
      "address": "9059 Main Street",
      "city": "Huntsville",
      "state": "AL",
      "zip": "15990",
      "county": "Huntsville County",
      "type": "Career",
      "phone": "",
      "latitude": 31.741339,
      "longitude": -87.001781,
      "status": "OPEN"
    },
    {
      "id": 6,
      "name": "Mobile Fire Department",
      "address": "1471 Main Street",
      "city": "Mobile",
      "state": "AL",
      "zip": "58759",
      "county": "Mobile County",
      "type": "Career",
      "phone": "",
      "latitude": 31.341242,
      "longitude": -86.777815,
      "status": "OPEN"
    },
    {
      "id": 7,
      "name": "Mobile Fire-Rescue - Station 2",
      "address": "5059 Main Street",
      "city": "Mobile",
      "state": "AL",
      "zip": "75890",
      "county": "Mobile County",
      "type": "Volunteer",
      "phone": "",
      "latitude": 30.368959,
      "longitude": -86.438596,
      "status": "OPEN"
    },
    {
      "id": 8,
      "name": "Mobile Volunteer Fire Department - Station 3",
      "address": "6433 Main Street",
      "city": "Mobile",
      "state": "AL",
      "zip": "35899",
      "county": "Mobile County",
      "type": "Combination",
      "phone": "",
      "latitude": 34.211064,
      "longitude": -85.417334,
      "status": "OPEN"
    },
    {
      "id": 9,
      "name": "Tuscaloosa Fire District",
      "address": "125 Main Street",
      "city": "Tuscaloosa",
      "state": "AL",
      "zip": "47107",
      "county": "Tuscaloosa County",
      "type": "Career",
      "phone": "",
      "latitude": 30.899317,
      "longitude": -87.1201,
      "status": "OPEN"
    },
    {
      "id": 10,
      "name": "Anchorage Volunteer Fire Department",
      "address": "1937 Main Street",
      "city": "Anchorage",
      "state": "AK",
      "zip": "29720",
      "county": "Anchorage County",
      "type": "Volunteer",
      "phone": "",
      "latitude": 55.92735,
      "longitude": -135.636878,
      "status": "OPEN"
    },
    {
      "id": 11,
      "name": "Anchorage Fire-Rescue - Station 2",
      "address": "6077 Main Street",
      "city": "Anchorage",
      "state": "AK",
      "zip": "76067",
      "county": "Anchorage County",
      "type": "Volunteer",
      "phone": "",
      "latitude": 60.617457,
      "longitude": -168.544842,
      "status": "OPEN"
    },
    {
      "id": 12,
      "name": "Fairbanks Fire Protection District",
      "address": "7695 Main Street",
      "city": "Fairbanks",
      "state": "AK",
      "zip": "86433",
      "county": "Fairbanks County",
      "type": "Career",
      "phone": "",
      "latitude": 61.283243,
      "longitude": -158.220788,
      "status": "OPEN"
    },
    {
      "id": 13,
      "name": "Fairbanks Fire District - Station 2",
      "address": "2229 Main Street",
      "city": "Fairbanks",
      "state": "AK",
      "zip": "87810",
      "county": "Fairbanks County",
      "type": "Volunteer",
      "phone": "",
      "latitude": 57.490251,
      "longitude": -148.762514,
      "status": "OPEN"
    },
    {
      "id": 14,
      "name": "Juneau Fire District",
      "address": "8779 Main Street",
      "city": "Juneau",
      "state": "AK",
      "zip": "78603",
      "county": "Juneau County",
      "type": "Career",
      "phone": "",
      "latitude": 57.570147,
      "longitude": -172.231634,
      "status": "OPEN"
    },
    {
      "id": 15,
      "name": "Juneau Fire Protection District - Station 2",
      "address": "3850 Main Street",
      "city": "Juneau",
      "state": "AK",
      "zip": "28523",
      "county": "Juneau County",
      "type": "Combination",
      "phone": "",
      "latitude": 58.763038,
      "longitude": -136.020954,
      "status": "OPEN"
    },
    {
      "id": 16,
      "name": "Sitka Fire District",
      "address": "3318 Main Street",
      "city": "Sitka",
      "state": "AK",
      "zip": "26335",
      "county": "Sitka County",
      "type": "Combination",
      "phone": "",
      "latitude": 64.22785,
      "longitude": -144.973344,
      "status": "OPEN"
    },
    {
      "id": 17,
      "name": "Ketchikan Volunteer Fire Department",
      "address": "2657 Main Street",
      "city": "Ketchikan",
      "state": "AK",
      "zip": "94314",
      "county": "Ketchikan County",
      "type": "Career",
      "phone": "",
      "latitude": 63.516003,
      "longitude": -167.519463,
      "status": "OPEN"
    },
    {
      "id": 18,
      "name": "Ketchikan Fire-Rescue - Station 2",
      "address": "8970 Main Street",
      "city": "Ketchikan",
      "state": "AK",
      "zip": "18569",
      "county": "Ketchikan County",
      "type": "Paid",
      "phone": "",
      "latitude": 62.591083,
      "longitude": -149.207555,
      "status": "OPEN"
    },
    {
      "id": 19,
      "name": "Phoenix Fire Department",
      "address": "564 Main Street",
      "city": "Phoenix",
      "state": "AZ",
      "zip": "21256",
      "county": "Phoenix County",
      "type": "Paid",
      "phone": "",
      "latitude": 36.638821,
      "longitude": -109.421978,
      "status": "OPEN"
    },
    {
      "id": 20,
      "name": "Tucson Fire Department",
      "address": "737 Main Street",
      "city": "Tucson",
      "state": "AZ",
      "zip": "48330",
      "county": "Tucson County",
      "type": "Volunteer",
      "phone": "",
      "latitude": 36.809387,
      "longitude": -112.405584,
      "status": "OPEN"
    },
    {
      "id": 21,
      "name": "Tucson Fire Department - Station 2",
      "address": "2710 Main Street",
      "city": "Tucson",
      "state": "AZ",
      "zip": "26452",
      "county": "Tucson County",
      "type": "Volunteer",
      "phone": "",
      "latitude": 32.920776,
      "longitude": -112.521999,
      "status": "OPEN"
    },
    {
      "id": 22,
      "name": "Tucson Fire Department - Station 3",
      "address": "7696 Main Street",
      "city": "Tucson",
      "state": "AZ",
      "zip": "88864",
      "county": "Tucson County",
      "type": "Career",
      "phone": "",
      "latitude": 31.731454,
      "longitude": -109.195953,
      "status": "OPEN"
    },
    {
      "id": 23,
      "name": "Mesa Fire Protection District",
      "address": "4327 Main Street",
      "city": "Mesa",
      "state": "AZ",
      "zip": "28928",
      "county": "Mesa County",
      "type": "Combination",
      "phone": "",
      "latitude": 35.979914,
      "longitude": -111.998605,
      "status": "OPEN"
    },
    {
      "id": 24,
      "name": "Chandler Fire-Rescue",
      "address": "4277 Main Street",
      "city": "Chandler",
      "state": "AZ",
      "zip": "43903",
      "county": "Chandler County",
      "type": "Paid",
      "phone": "",
      "latitude": 36.825477,
      "longitude": -113.720246,
      "status": "OPEN"
    },
    {
      "id": 25,
      "name": "Chandler Fire District - Station 2",
      "address": "8933 Main Street",
      "city": "Chandler",
      "state": "AZ",
      "zip": "44792",
      "county": "Chandler County",
      "type": "Career",
      "phone": "",
      "latitude": 36.250052,
      "longitude": -110.00081,
      "status": "OPEN"
    },
    {
      "id": 26,
      "name": "Chandler Fire Department - Station 3",
      "address": "5403 Main Street",
      "city": "Chandler",
      "state": "AZ",
      "zip": "53864",
      "county": "Chandler County",
      "type": "Combination",
      "phone": "",
      "latitude": 36.117174,
      "longitude": -113.97475,
      "status": "OPEN"
    },
    {
      "id": 27,
      "name": "Scottsdale Fire District",
      "address": "4702 Main Street",
      "city": "Scottsdale",
      "state": "AZ",
      "zip": "64462",
      "county": "Scottsdale County",
      "type": "Volunteer",
      "phone": "",
      "latitude": 35.488298,
      "longitude": -110.756606,
      "status": "OPEN"
    },
    {
      "id": 28,
      "name": "Little Rock Fire District",
      "address": "647 Main Street",
      "city": "Little Rock",
      "state": "AR",
      "zip": "90405",
      "county": "Little Rock County",
      "type": "Paid",
      "phone": "",
      "latitude": 34.957348,
      "longitude": -90.219462,
      "status": "OPEN"
    },
    {
      "id": 29,
      "name": "Fort Smith Fire District",
      "address": "1554 Main Street",
      "city": "Fort Smith",
      "state": "AR",
      "zip": "55449",
      "county": "Fort Smith County",
      "type": "Volunteer",
      "phone": "",
      "latitude": 34.261766,
      "longitude": -93.810223,
      "status": "OPEN"
    },
    {
      "id": 30,
      "name": "Fort Smith Fire Protection District - Station 2",
      "address": "6449 Main Street",
      "city": "Fort Smith",
      "state": "AR",
      "zip": "65623",
      "county": "Fort Smith County",
      "type": "Volunteer",
      "phone": "",
      "latitude": 35.585151,
      "longitude": -90.143425,
      "status": "OPEN"
    },
    {
      "id": 31,
      "name": "Fayetteville Fire-Rescue",
      "address": "4905 Main Street",
      "city": "Fayetteville",
      "state": "AR",
      "zip": "11686",
      "county": "Fayetteville County",
      "type": "Volunteer",
      "phone": "",
      "latitude": 33.081139,
      "longitude": -92.667112,
      "status": "OPEN"
    },
    {
      "id": 32,
      "name": "Springdale Volunteer Fire Department",
      "address": "570 Main Street",
      "city": "Springdale",
      "state": "AR",
      "zip": "36008",
      "county": "Springdale County",
      "type": "Career",
      "phone": "",
      "latitude": 35.368421,
      "longitude": -93.061047,
      "status": "OPEN"
    },
    {
      "id": 33,
      "name": "Jonesboro Fire Protection District",
      "address": "9000 Main Street",
      "city": "Jonesboro",
      "state": "AR",
      "zip": "44746",
      "county": "Jonesboro County",
      "type": "Career",
      "phone": "",
      "latitude": 35.414248,
      "longitude": -93.68886,
      "status": "OPEN"
    },
    {
      "id": 34,
      "name": "Jonesboro Fire Protection District - Station 2",
      "address": "8498 Main Street",
      "city": "Jonesboro",
      "state": "AR",
      "zip": "72459",
      "county": "Jonesboro County",
      "type": "Combination",
      "phone": "",
      "latitude": 34.84291,
      "longitude": -94.564385,
      "status": "OPEN"
    },
    {
      "id": 35,
      "name": "Jonesboro Volunteer Fire Department - Station 3",
      "address": "6983 Main Street",
      "city": "Jonesboro",
      "state": "AR",
      "zip": "86531",
      "county": "Jonesboro County",
      "type": "Paid",
      "phone": "",
      "latitude": 34.63664,
      "longitude": -90.511468,
      "status": "OPEN"
    },
    {
      "id": 36,
      "name": "Los Angeles Fire District",
      "address": "3398 Main Street",
      "city": "Los Angeles",
      "state": "CA",
      "zip": "25827",
      "county": "Los Angeles County",
      "type": "Paid",
      "phone": "",
      "latitude": 33.980743,
      "longitude": -120.993733,
      "status": "OPEN"
    },
    {
      "id": 37,
      "name": "Los Angeles Fire Protection District - Station 2",
      "address": "6710 Main Street",
      "city": "Los Angeles",
      "state": "CA",
      "zip": "35457",
      "county": "Los Angeles County",
      "type": "Paid",
      "phone": "",
      "latitude": 38.405141,
      "longitude": -117.542039,
      "status": "OPEN"
    },
    {
      "id": 38,
      "name": "Los Angeles Fire-Rescue - Station 3",
      "address": "1655 Main Street",
      "city": "Los Angeles",
      "state": "CA",
      "zip": "32741",
      "county": "Los Angeles County",
      "type": "Combination",
      "phone": "",
      "latitude": 33.62121,
      "longitude": -120.788874,
      "status": "OPEN"
    },
    {
      "id": 39,
      "name": "San Diego Fire District",
      "address": "8473 Main Street",
      "city": "San Diego",
      "state": "CA",
      "zip": "62771",
      "county": "San Diego County",
      "type": "Paid",
      "phone": "",
      "latitude": 41.156996,
      "longitude": -124.180566,
      "status": "OPEN"
    },
    {
      "id": 40,
      "name": "San Diego Fire District - Station 2",
      "address": "7325 Main Street",
      "city": "San Diego",
      "state": "CA",
      "zip": "92658",
      "county": "San Diego County",
      "type": "Volunteer",
      "phone": "",
      "latitude": 33.839672,
      "longitude": -123.479261,
      "status": "OPEN"
    },
    {
      "id": 41,
      "name": "San Diego Volunteer Fire Department - Station 3",
      "address": "5784 Main Street",
      "city": "San Diego",
      "state": "CA",
      "zip": "42937",
      "county": "San Diego County",
      "type": "Career",
      "phone": "",
      "latitude": 38.419617,
      "longitude": -118.68759,
      "status": "OPEN"
    },
    {
      "id": 42,
      "name": "San Francisco Volunteer Fire Department",
      "address": "9369 Main Street",
      "city": "San Francisco",
      "state": "CA",
      "zip": "27982",
      "county": "San Francisco County",
      "type": "Paid",
      "phone": "",
      "latitude": 34.108384,
      "longitude": -122.277816,
      "status": "OPEN"
    },
    {
      "id": 43,
      "name": "San Francisco Fire-Rescue - Station 2",
      "address": "4832 Main Street",
      "city": "San Francisco",
      "state": "CA",
      "zip": "71835",
      "county": "San Francisco County",
      "type": "Combination",
      "phone": "",
      "latitude": 40.393645,
      "longitude": -121.741448,
      "status": "OPEN"
    },
    {
      "id": 44,
      "name": "San Francisco Volunteer Fire Department - Station 3",
      "address": "5621 Main Street",
      "city": "San Francisco",
      "state": "CA",
      "zip": "88869",
      "county": "San Francisco County",
      "type": "Combination",
      "phone": "",
      "latitude": 36.315766,
      "longitude": -122.684513,
      "status": "OPEN"
    },
    {
      "id": 45,
      "name": "San Jose Volunteer Fire Department",
      "address": "5697 Main Street",
      "city": "San Jose",
      "state": "CA",
      "zip": "76327",
      "county": "San Jose County",
      "type": "Combination",
      "phone": "",
      "latitude": 36.59201,
      "longitude": -115.9483,
      "status": "OPEN"
    },
    {
      "id": 46,
      "name": "San Jose Fire-Rescue - Station 2",
      "address": "3238 Main Street",
      "city": "San Jose",
      "state": "CA",
      "zip": "95720",
      "county": "San Jose County",
      "type": "Paid",
      "phone": "",
      "latitude": 34.729988,
      "longitude": -121.401103,
      "status": "OPEN"
    },
    {
      "id": 47,
      "name": "San Jose Volunteer Fire Department - Station 3",
      "address": "4071 Main Street",
      "city": "San Jose",
      "state": "CA",
      "zip": "69425",
      "county": "San Jose County",
      "type": "Combination",
      "phone": "",
      "latitude": 41.863862,
      "longitude": -121.844486,
      "status": "OPEN"
    },
    {
      "id": 48,
      "name": "Sacramento Fire-Rescue",
      "address": "1005 Main Street",
      "city": "Sacramento",
      "state": "CA",
      "zip": "25633",
      "county": "Sacramento County",
      "type": "Combination",
      "phone": "",
      "latitude": 34.660345,
      "longitude": -114.731425,
      "status": "OPEN"
    },
    {
      "id": 49,
      "name": "Oakland Fire Protection District",
      "address": "3014 Main Street",
      "city": "Oakland",
      "state": "CA",
      "zip": "99589",
      "county": "Oakland County",
      "type": "Combination",
      "phone": "",
      "latitude": 36.273941,
      "longitude": -114.294142,
      "status": "OPEN"
    },
    {
      "id": 50,
      "name": "Fresno Fire-Rescue",
      "address": "942 Main Street",
      "city": "Fresno",
      "state": "CA",
      "zip": "77180",
      "county": "Fresno County",
      "type": "Volunteer",
      "phone": "",
      "latitude": 35.468166,
      "longitude": -120.96598,
      "status": "OPEN"
    },
    {
      "id": 51,
      "name": "Fresno Fire Department - Station 2",
      "address": "1331 Main Street",
      "city": "Fresno",
      "state": "CA",
      "zip": "46614",
      "county": "Fresno County",
      "type": "Volunteer",
      "phone": "",
      "latitude": 41.174878,
      "longitude": -121.600818,
      "status": "OPEN"
    },
    {
      "id": 52,
      "name": "Fresno Fire Department - Station 3",
      "address": "8457 Main Street",
      "city": "Fresno",
      "state": "CA",
      "zip": "92909",
      "county": "Fresno County",
      "type": "Combination",
      "phone": "",
      "latitude": 41.135965,
      "longitude": -120.299478,
      "status": "OPEN"
    },
    {
      "id": 53,
      "name": "Long Beach Fire District",
      "address": "1852 Main Street",
      "city": "Long Beach",
      "state": "CA",
      "zip": "96250",
      "county": "Long Beach County",
      "type": "Volunteer",
      "phone": "",
      "latitude": 38.151063,
      "longitude": -116.607078,
      "status": "OPEN"
    },
    {
      "id": 54,
      "name": "Denver Fire Protection District",
      "address": "1575 Main Street",
      "city": "Denver",
      "state": "CO",
      "zip": "64981",
      "county": "Denver County",
      "type": "Career",
      "phone": "",
      "latitude": 38.015243,
      "longitude": -106.784819,
      "status": "OPEN"
    },
    {
      "id": 55,
      "name": "Denver Fire District - Station 2",
      "address": "6739 Main Street",
      "city": "Denver",
      "state": "CO",
      "zip": "67921",
      "county": "Denver County",
      "type": "Volunteer",
      "phone": "",
      "latitude": 37.110138,
      "longitude": -107.267559,
      "status": "OPEN"
    },
    {
      "id": 56,
      "name": "Colorado Springs Fire-Rescue",
      "address": "4961 Main Street",
      "city": "Colorado Springs",
      "state": "CO",
      "zip": "99081",
      "county": "Colorado Springs County",
      "type": "Paid",
      "phone": "",
      "latitude": 40.373404,
      "longitude": -106.431773,
      "status": "OPEN"
    },
    {
      "id": 57,
      "name": "Colorado Springs Fire District - Station 2",
      "address": "2694 Main Street",
      "city": "Colorado Springs",
      "state": "CO",
      "zip": "61163",
      "county": "Colorado Springs County",
      "type": "Career",
      "phone": "",
      "latitude": 38.801233,
      "longitude": -104.799057,
      "status": "OPEN"
    },
    {
      "id": 58,
      "name": "Colorado Springs Fire Protection District - Station 3",
      "address": "5363 Main Street",
      "city": "Colorado Springs",
      "state": "CO",
      "zip": "51574",
      "county": "Colorado Springs County",
      "type": "Career",
      "phone": "",
      "latitude": 37.698818,
      "longitude": -107.269317,
      "status": "OPEN"
    },
    {
      "id": 59,
      "name": "Aurora Fire-Rescue",
      "address": "7717 Main Street",
      "city": "Aurora",
      "state": "CO",
      "zip": "50788",
      "county": "Aurora County",
      "type": "Paid",
      "phone": "",
      "latitude": 38.216088,
      "longitude": -106.719344,
      "status": "OPEN"
    },
    {
      "id": 60,
      "name": "Aurora Fire Protection District - Station 2",
      "address": "6155 Main Street",
      "city": "Aurora",
      "state": "CO",
      "zip": "77600",
      "county": "Aurora County",
      "type": "Career",
      "phone": "",
      "latitude": 40.724161,
      "longitude": -106.690451,
      "status": "OPEN"
    },
    {
      "id": 61,
      "name": "Aurora Fire Department - Station 3",
      "address": "2277 Main Street",
      "city": "Aurora",
      "state": "CO",
      "zip": "81357",
      "county": "Aurora County",
      "type": "Volunteer",
      "phone": "",
      "latitude": 37.471362,
      "longitude": -103.757708,
      "status": "OPEN"
    },
    {
      "id": 62,
      "name": "Fort Collins Fire District",
      "address": "6401 Main Street",
      "city": "Fort Collins",
      "state": "CO",
      "zip": "49215",
      "county": "Fort Collins County",
      "type": "Combination",
      "phone": "",
      "latitude": 40.828084,
      "longitude": -103.691508,
      "status": "OPEN"
    },
    {
      "id": 63,
      "name": "Fort Collins Fire District - Station 2",
      "address": "2650 Main Street",
      "city": "Fort Collins",
      "state": "CO",
      "zip": "65614",
      "county": "Fort Collins County",
      "type": "Career",
      "phone": "",
      "latitude": 38.115845,
      "longitude": -102.778245,
      "status": "OPEN"
    },
    {
      "id": 64,
      "name": "Fort Collins Fire Protection District - Station 3",
      "address": "315 Main Street",
      "city": "Fort Collins",
      "state": "CO",
      "zip": "16591",
      "county": "Fort Collins County",
      "type": "Volunteer",
      "phone": "",
      "latitude": 40.867566,
      "longitude": -108.317155,
      "status": "OPEN"
    },
    {
      "id": 65,
      "name": "Boulder Fire District",
      "address": "6827 Main Street",
      "city": "Boulder",
      "state": "CO",
      "zip": "85976",
      "county": "Boulder County",
      "type": "Volunteer",
      "phone": "",
      "latitude": 40.42461,
      "longitude": -108.861386,
      "status": "OPEN"
    },
    {
      "id": 66,
      "name": "Boulder Fire Department - Station 2",
      "address": "8654 Main Street",
      "city": "Boulder",
      "state": "CO",
      "zip": "27627",
      "county": "Boulder County",
      "type": "Paid",
      "phone": "",
      "latitude": 39.375313,
      "longitude": -108.489419,
      "status": "OPEN"
    },
    {
      "id": 67,
      "name": "Boulder Volunteer Fire Department - Station 3",
      "address": "9011 Main Street",
      "city": "Boulder",
      "state": "CO",
      "zip": "34844",
      "county": "Boulder County",
      "type": "Volunteer",
      "phone": "",
      "latitude": 38.725736,
      "longitude": -103.004852,
      "status": "OPEN"
    },
    {
      "id": 68,
      "name": "Bridgeport Fire District",
      "address": "4755 Main Street",
      "city": "Bridgeport",
      "state": "CT",
      "zip": "37136",
      "county": "Bridgeport County",
      "type": "Paid",
      "phone": "",
      "latitude": 41.602362,
      "longitude": -72.511206,
      "status": "OPEN"
    },
    {
      "id": 69,
      "name": "Bridgeport Fire District - Station 2",
      "address": "4651 Main Street",
      "city": "Bridgeport",
      "state": "CT",
      "zip": "97813",
      "county": "Bridgeport County",
      "type": "Combination",
      "phone": "",
      "latitude": 41.936916,
      "longitude": -72.671192,
      "status": "OPEN"
    },
    {
      "id": 70,
      "name": "Bridgeport Fire District - Station 3",
      "address": "319 Main Street",
      "city": "Bridgeport",
      "state": "CT",
      "zip": "61103",
      "county": "Bridgeport County",
      "type": "Combination",
      "phone": "",
      "latitude": 41.185799,
      "longitude": -71.97378,
      "status": "OPEN"
    },
    {
      "id": 71,
      "name": "New Haven Fire Department",
      "address": "4450 Main Street",
      "city": "New Haven",
      "state": "CT",
      "zip": "42228",
      "county": "New Haven County",
      "type": "Paid",
      "phone": "",
      "latitude": 41.865387,
      "longitude": -73.196898,
      "status": "OPEN"
    },
    {
      "id": 72,
      "name": "New Haven Volunteer Fire Department - Station 2",
      "address": "9122 Main Street",
      "city": "New Haven",
      "state": "CT",
      "zip": "83471",
      "county": "New Haven County",
      "type": "Paid",
      "phone": "",
      "latitude": 41.065174,
      "longitude": -72.857911,
      "status": "OPEN"
    },
    {
      "id": 73,
      "name": "New Haven Fire Protection District - Station 3",
      "address": "4038 Main Street",
      "city": "New Haven",
      "state": "CT",
      "zip": "19900",
      "county": "New Haven County",
      "type": "Career",
      "phone": "",
      "latitude": 41.274824,
      "longitude": -72.92895,
      "status": "OPEN"
    },
    {
      "id": 74,
      "name": "Hartford Fire Department",
      "address": "5122 Main Street",
      "city": "Hartford",
      "state": "CT",
      "zip": "31366",
      "county": "Hartford County",
      "type": "Career",
      "phone": "",
      "latitude": 41.210543,
      "longitude": -72.25552,
      "status": "OPEN"
    },
    {
      "id": 75,
      "name": "Hartford Fire Protection District - Station 2",
      "address": "8968 Main Street",
      "city": "Hartford",
      "state": "CT",
      "zip": "46592",
      "county": "Hartford County",
      "type": "Combination",
      "phone": "",
      "latitude": 41.560974,
      "longitude": -72.456629,
      "status": "OPEN"
    },
    {
      "id": 76,
      "name": "Hartford Volunteer Fire Department - Station 3",
      "address": "3652 Main Street",
      "city": "Hartford",
      "state": "CT",
      "zip": "34831",
      "county": "Hartford County",
      "type": "Career",
      "phone": "",
      "latitude": 41.542051,
      "longitude": -73.110013,
      "status": "OPEN"
    },
    {
      "id": 77,
      "name": "Stamford Volunteer Fire Department",
      "address": "2044 Main Street",
      "city": "Stamford",
      "state": "CT",
      "zip": "48081",
      "county": "Stamford County",
      "type": "Combination",
      "phone": "",
      "latitude": 41.169823,
      "longitude": -71.972963,
      "status": "OPEN"
    },
    {
      "id": 78,
      "name": "Waterbury Volunteer Fire Department",
      "address": "7503 Main Street",
      "city": "Waterbury",
      "state": "CT",
      "zip": "11244",
      "county": "Waterbury County",
      "type": "Paid",
      "phone": "",
      "latitude": 41.910536,
      "longitude": -72.251373,
      "status": "OPEN"
    },
    {
      "id": 79,
      "name": "Waterbury Fire-Rescue - Station 2",
      "address": "6704 Main Street",
      "city": "Waterbury",
      "state": "CT",
      "zip": "97396",
      "county": "Waterbury County",
      "type": "Career",
      "phone": "",
      "latitude": 42.036365,
      "longitude": -72.993204,
      "status": "OPEN"
    },
    {
      "id": 80,
      "name": "Waterbury Fire Protection District - Station 3",
      "address": "5256 Main Street",
      "city": "Waterbury",
      "state": "CT",
      "zip": "15054",
      "county": "Waterbury County",
      "type": "Paid",
      "phone": "",
      "latitude": 41.820433,
      "longitude": -72.48391,
      "status": "OPEN"
    },
    {
      "id": 81,
      "name": "Wilmington Fire Protection District",
      "address": "287 Main Street",
      "city": "Wilmington",
      "state": "DE",
      "zip": "38038",
      "county": "Wilmington County",
      "type": "Combination",
      "phone": "",
      "latitude": 38.62383,
      "longitude": -75.114953,
      "status": "OPEN"
    },
    {
      "id": 82,
      "name": "Dover Volunteer Fire Department",
      "address": "3859 Main Street",
      "city": "Dover",
      "state": "DE",
      "zip": "67979",
      "county": "Dover County",
      "type": "Volunteer",
      "phone": "",
      "latitude": 39.195165,
      "longitude": -75.271497,
      "status": "OPEN"
    },
    {
      "id": 83,
      "name": "Dover Fire Department - Station 2",
      "address": "1642 Main Street",
      "city": "Dover",
      "state": "DE",
      "zip": "48566",
      "county": "Dover County",
      "type": "Career",
      "phone": "",
      "latitude": 39.151566,
      "longitude": -75.308461,
      "status": "OPEN"
    },
    {
      "id": 84,
      "name": "Dover Fire Department - Station 3",
      "address": "8007 Main Street",
      "city": "Dover",
      "state": "DE",
      "zip": "46678",
      "county": "Dover County",
      "type": "Career",
      "phone": "",
      "latitude": 39.553805,
      "longitude": -75.633353,
      "status": "OPEN"
    },
    {
      "id": 85,
      "name": "Newark Volunteer Fire Department",
      "address": "1514 Main Street",
      "city": "Newark",
      "state": "DE",
      "zip": "92986",
      "county": "Newark County",
      "type": "Career",
      "phone": "",
      "latitude": 39.375395,
      "longitude": -75.611157,
      "status": "OPEN"
    },
    {
      "id": 86,
      "name": "Newark Fire Protection District - Station 2",
      "address": "4095 Main Street",
      "city": "Newark",
      "state": "DE",
      "zip": "63982",
      "county": "Newark County",
      "type": "Volunteer",
      "phone": "",
      "latitude": 38.448095,
      "longitude": -75.527904,
      "status": "OPEN"
    },
    {
      "id": 87,
      "name": "Newark Fire Protection District - Station 3",
      "address": "9797 Main Street",
      "city": "Newark",
      "state": "DE",
      "zip": "46556",
      "county": "Newark County",
      "type": "Career",
      "phone": "",
      "latitude": 39.532756,
      "longitude": -75.282949,
      "status": "OPEN"
    },
    {
      "id": 88,
      "name": "Middletown Fire Department",
      "address": "5097 Main Street",
      "city": "Middletown",
      "state": "DE",
      "zip": "78249",
      "county": "Middletown County",
      "type": "Career",
      "phone": "",
      "latitude": 39.509472,
      "longitude": -75.603959,
      "status": "OPEN"
    },
    {
      "id": 89,
      "name": "Middletown Fire Protection District - Station 2",
      "address": "1091 Main Street",
      "city": "Middletown",
      "state": "DE",
      "zip": "77651",
      "county": "Middletown County",
      "type": "Career",
      "phone": "",
      "latitude": 38.97055,
      "longitude": -75.145023,
      "status": "OPEN"
    },
    {
      "id": 90,
      "name": "Smyrna Fire-Rescue",
      "address": "3689 Main Street",
      "city": "Smyrna",
      "state": "DE",
      "zip": "91654",
      "county": "Smyrna County",
      "type": "Volunteer",
      "phone": "",
      "latitude": 39.489353,
      "longitude": -75.721644,
      "status": "OPEN"
    },
    {
      "id": 91,
      "name": "Jacksonville Fire Department",
      "address": "9899 Main Street",
      "city": "Jacksonville",
      "state": "FL",
      "zip": "87916",
      "county": "Jacksonville County",
      "type": "Combination",
      "phone": "",
      "latitude": 25.689672,
      "longitude": -84.020525,
      "status": "OPEN"
    },
    {
      "id": 92,
      "name": "Jacksonville Fire Department - Station 2",
      "address": "1027 Main Street",
      "city": "Jacksonville",
      "state": "FL",
      "zip": "50816",
      "county": "Jacksonville County",
      "type": "Paid",
      "phone": "",
      "latitude": 27.539899,
      "longitude": -82.75878,
      "status": "OPEN"
    },
    {
      "id": 93,
      "name": "Miami Fire-Rescue",
      "address": "2575 Main Street",
      "city": "Miami",
      "state": "FL",
      "zip": "74451",
      "county": "Miami County",
      "type": "Combination",
      "phone": "",
      "latitude": 26.332906,
      "longitude": -80.763909,
      "status": "OPEN"
    },
    {
      "id": 94,
      "name": "Miami Fire Protection District - Station 2",
      "address": "2756 Main Street",
      "city": "Miami",
      "state": "FL",
      "zip": "11305",
      "county": "Miami County",
      "type": "Combination",
      "phone": "",
      "latitude": 29.726515,
      "longitude": -84.853306,
      "status": "OPEN"
    },
    {
      "id": 95,
      "name": "Tampa Fire District",
      "address": "5595 Main Street",
      "city": "Tampa",
      "state": "FL",
      "zip": "12098",
      "county": "Tampa County",
      "type": "Career",
      "phone": "",
      "latitude": 28.812744,
      "longitude": -80.828714,
      "status": "OPEN"
    },
    {
      "id": 96,
      "name": "Orlando Fire-Rescue",
      "address": "8490 Main Street",
      "city": "Orlando",
      "state": "FL",
      "zip": "44198",
      "county": "Orlando County",
      "type": "Combination",
      "phone": "",
      "latitude": 25.75244,
      "longitude": -80.566532,
      "status": "OPEN"
    },
    {
      "id": 97,
      "name": "Orlando Volunteer Fire Department - Station 2",
      "address": "6836 Main Street",
      "city": "Orlando",
      "state": "FL",
      "zip": "37419",
      "county": "Orlando County",
      "type": "Career",
      "phone": "",
      "latitude": 25.458395,
      "longitude": -87.058578,
      "status": "OPEN"
    },
    {
      "id": 98,
      "name": "St. Petersburg Fire Department",
      "address": "6285 Main Street",
      "city": "St. Petersburg",
      "state": "FL",
      "zip": "68213",
      "county": "St. Petersburg County",
      "type": "Combination",
      "phone": "",
      "latitude": 26.149331,
      "longitude": -85.429299,
      "status": "OPEN"
    },
    {
      "id": 99,
      "name": "Hialeah Fire District",
      "address": "5836 Main Street",
      "city": "Hialeah",
      "state": "FL",
      "zip": "27597",
      "county": "Hialeah County",
      "type": "Career",
      "phone": "",
      "latitude": 29.329991,
      "longitude": -81.877562,
      "status": "OPEN"
    },
    {
      "id": 100,
      "name": "Tallahassee Volunteer Fire Department",
      "address": "4890 Main Street",
      "city": "Tallahassee",
      "state": "FL",
      "zip": "96787",
      "county": "Tallahassee County",
      "type": "Career",
      "phone": "",
      "latitude": 30.963168,
      "longitude": -86.70166,
      "status": "OPEN"
    },
    {
      "id": 101,
      "name": "Tallahassee Fire Protection District - Station 2",
      "address": "4552 Main Street",
      "city": "Tallahassee",
      "state": "FL",
      "zip": "11494",
      "county": "Tallahassee County",
      "type": "Combination",
      "phone": "",
      "latitude": 30.221411,
      "longitude": -81.342704,
      "status": "OPEN"
    },
    {
      "id": 102,
      "name": "Atlanta Fire Department",
      "address": "587 Main Street",
      "city": "Atlanta",
      "state": "GA",
      "zip": "70232",
      "county": "Atlanta County",
      "type": "Volunteer",
      "phone": "",
      "latitude": 32.624719,
      "longitude": -83.468406,
      "status": "OPEN"
    },
    {
      "id": 103,
      "name": "Augusta Fire Department",
      "address": "6111 Main Street",
      "city": "Augusta",
      "state": "GA",
      "zip": "16179",
      "county": "Augusta County",
      "type": "Combination",
      "phone": "",
      "latitude": 33.598467,
      "longitude": -81.36173,
      "status": "OPEN"
    },
    {
      "id": 104,
      "name": "Columbus Volunteer Fire Department",
      "address": "8964 Main Street",
      "city": "Columbus",
      "state": "GA",
      "zip": "43343",
      "county": "Columbus County",
      "type": "Career",
      "phone": "",
      "latitude": 33.90816,
      "longitude": -83.331741,
      "status": "OPEN"
    },
    {
      "id": 105,
      "name": "Columbus Fire Protection District - Station 2",
      "address": "3763 Main Street",
      "city": "Columbus",
      "state": "GA",
      "zip": "86627",
      "county": "Columbus County",
      "type": "Career",
      "phone": "",
      "latitude": 33.54637,
      "longitude": -83.846967,
      "status": "OPEN"
    },
    {
      "id": 106,
      "name": "Savannah Fire Department",
      "address": "5107 Main Street",
      "city": "Savannah",
      "state": "GA",
      "zip": "82560",
      "county": "Savannah County",
      "type": "Volunteer",
      "phone": "",
      "latitude": 33.109953,
      "longitude": -84.924097,
      "status": "OPEN"
    },
    {
      "id": 107,
      "name": "Athens Fire Department",
      "address": "5982 Main Street",
      "city": "Athens",
      "state": "GA",
      "zip": "46950",
      "county": "Athens County",
      "type": "Paid",
      "phone": "",
      "latitude": 33.394357,
      "longitude": -81.095444,
      "status": "OPEN"
    },
    {
      "id": 108,
      "name": "Honolulu Fire District",
      "address": "4873 Main Street",
      "city": "Honolulu",
      "state": "HI",
      "zip": "49614",
      "county": "Honolulu County",
      "type": "Paid",
      "phone": "",
      "latitude": 19.854967,
      "longitude": -159.068194,
      "status": "OPEN"
    },
    {
      "id": 109,
      "name": "Honolulu Fire Protection District - Station 2",
      "address": "6506 Main Street",
      "city": "Honolulu",
      "state": "HI",
      "zip": "98057",
      "county": "Honolulu County",
      "type": "Volunteer",
      "phone": "",
      "latitude": 20.235031,
      "longitude": -158.612,
      "status": "OPEN"
    },
    {
      "id": 110,
      "name": "Pearl City Volunteer Fire Department",
      "address": "5711 Main Street",
      "city": "Pearl City",
      "state": "HI",
      "zip": "30549",
      "county": "Pearl City County",
      "type": "Paid",
      "phone": "",
      "latitude": 20.328895,
      "longitude": -158.781282,
      "status": "OPEN"
    },
    {
      "id": 111,
      "name": "Hilo Fire Department",
      "address": "6334 Main Street",
      "city": "Hilo",
      "state": "HI",
      "zip": "61982",
      "county": "Hilo County",
      "type": "Combination",
      "phone": "",
      "latitude": 21.923832,
      "longitude": -157.677419,
      "status": "OPEN"
    },
    {
      "id": 112,
      "name": "Kailua Fire District",
      "address": "5801 Main Street",
      "city": "Kailua",
      "state": "HI",
      "zip": "30101",
      "county": "Kailua County",
      "type": "Paid",
      "phone": "",
      "latitude": 22.090942,
      "longitude": -155.189426,
      "status": "OPEN"
    },
    {
      "id": 113,
      "name": "Kailua Fire-Rescue - Station 2",
      "address": "6905 Main Street",
      "city": "Kailua",
      "state": "HI",
      "zip": "64381",
      "county": "Kailua County",
      "type": "Career",
      "phone": "",
      "latitude": 19.66601,
      "longitude": -154.954333,
      "status": "OPEN"
    },
    {
      "id": 114,
      "name": "Kailua Fire District - Station 3",
      "address": "5166 Main Street",
      "city": "Kailua",
      "state": "HI",
      "zip": "47473",
      "county": "Kailua County",
      "type": "Career",
      "phone": "",
      "latitude": 20.85318,
      "longitude": -158.142215,
      "status": "OPEN"
    },
    {
      "id": 115,
      "name": "Waipahu Fire Protection District",
      "address": "1563 Main Street",
      "city": "Waipahu",
      "state": "HI",
      "zip": "94923",
      "county": "Waipahu County",
      "type": "Combination",
      "phone": "",
      "latitude": 20.638795,
      "longitude": -158.311117,
      "status": "OPEN"
    },
    {
      "id": 116,
      "name": "Boise Fire Department",
      "address": "5043 Main Street",
      "city": "Boise",
      "state": "ID",
      "zip": "22613",
      "county": "Boise County",
      "type": "Combination",
      "phone": "",
      "latitude": 42.236558,
      "longitude": -113.112573,
      "status": "OPEN"
    },
    {
      "id": 117,
      "name": "Meridian Fire Protection District",
      "address": "1415 Main Street",
      "city": "Meridian",
      "state": "ID",
      "zip": "67114",
      "county": "Meridian County",
      "type": "Career",
      "phone": "",
      "latitude": 47.119696,
      "longitude": -112.449003,
      "status": "OPEN"
    },
    {
      "id": 118,
      "name": "Meridian Fire District - Station 2",
      "address": "8845 Main Street",
      "city": "Meridian",
      "state": "ID",
      "zip": "37505",
      "county": "Meridian County",
      "type": "Combination",
      "phone": "",
      "latitude": 43.096096,
      "longitude": -113.555864,
      "status": "OPEN"
    },
    {
      "id": 119,
      "name": "Nampa Fire Protection District",
      "address": "8246 Main Street",
      "city": "Nampa",
      "state": "ID",
      "zip": "62025",
      "county": "Nampa County",
      "type": "Volunteer",
      "phone": "",
      "latitude": 47.953251,
      "longitude": -115.998838,
      "status": "OPEN"
    },
    {
      "id": 120,
      "name": "Nampa Fire District - Station 2",
      "address": "1819 Main Street",
      "city": "Nampa",
      "state": "ID",
      "zip": "98068",
      "county": "Nampa County",
      "type": "Combination",
      "phone": "",
      "latitude": 47.074044,
      "longitude": -113.064516,
      "status": "OPEN"
    },
    {
      "id": 121,
      "name": "Nampa Volunteer Fire Department - Station 3",
      "address": "5618 Main Street",
      "city": "Nampa",
      "state": "ID",
      "zip": "26733",
      "county": "Nampa County",
      "type": "Paid",
      "phone": "",
      "latitude": 46.670379,
      "longitude": -112.532485,
      "status": "OPEN"
    },
    {
      "id": 122,
      "name": "Idaho Falls Fire Protection District",
      "address": "1995 Main Street",
      "city": "Idaho Falls",
      "state": "ID",
      "zip": "18226",
      "county": "Idaho Falls County",
      "type": "Volunteer",
      "phone": "",
      "latitude": 43.698257,
      "longitude": -114.214024,
      "status": "OPEN"
    },
    {
      "id": 123,
      "name": "Idaho Falls Fire Department - Station 2",
      "address": "5793 Main Street",
      "city": "Idaho Falls",
      "state": "ID",
      "zip": "52040",
      "county": "Idaho Falls County",
      "type": "Career",
      "phone": "",
      "latitude": 44.321419,
      "longitude": -116.728852,
      "status": "OPEN"
    },
    {
      "id": 124,
      "name": "Idaho Falls Fire-Rescue - Station 3",
      "address": "9850 Main Street",
      "city": "Idaho Falls",
      "state": "ID",
      "zip": "75678",
      "county": "Idaho Falls County",
      "type": "Volunteer",
      "phone": "",
      "latitude": 46.641895,
      "longitude": -113.886434,
      "status": "OPEN"
    },
    {
      "id": 125,
      "name": "Pocatello Fire-Rescue",
      "address": "8000 Main Street",
      "city": "Pocatello",
      "state": "ID",
      "zip": "79370",
      "county": "Pocatello County",
      "type": "Combination",
      "phone": "",
      "latitude": 46.555983,
      "longitude": -113.303273,
      "status": "OPEN"
    },
    {
      "id": 126,
      "name": "Pocatello Fire District - Station 2",
      "address": "1997 Main Street",
      "city": "Pocatello",
      "state": "ID",
      "zip": "61419",
      "county": "Pocatello County",
      "type": "Career",
      "phone": "",
      "latitude": 47.087488,
      "longitude": -112.733957,
      "status": "OPEN"
    },
    {
      "id": 127,
      "name": "Pocatello Fire District - Station 3",
      "address": "9772 Main Street",
      "city": "Pocatello",
      "state": "ID",
      "zip": "32074",
      "county": "Pocatello County",
      "type": "Paid",
      "phone": "",
      "latitude": 47.183662,
      "longitude": -115.095162,
      "status": "OPEN"
    },
    {
      "id": 128,
      "name": "Chicago Fire Department",
      "address": "550 Main Street",
      "city": "Chicago",
      "state": "IL",
      "zip": "68920",
      "county": "Chicago County",
      "type": "Combination",
      "phone": "",
      "latitude": 41.954325,
      "longitude": -90.414211,
      "status": "OPEN"
    },
    {
      "id": 129,
      "name": "Aurora Fire Department",
      "address": "7895 Main Street",
      "city": "Aurora",
      "state": "IL",
      "zip": "84865",
      "county": "Aurora County",
      "type": "Paid",
      "phone": "",
      "latitude": 41.976709,
      "longitude": -90.185046,
      "status": "OPEN"
    },
    {
      "id": 130,
      "name": "Aurora Fire District - Station 2",
      "address": "4379 Main Street",
      "city": "Aurora",
      "state": "IL",
      "zip": "91038",
      "county": "Aurora County",
      "type": "Paid",
      "phone": "",
      "latitude": 42.486348,
      "longitude": -88.497311,
      "status": "OPEN"
    },
    {
      "id": 131,
      "name": "Naperville Fire Protection District",
      "address": "5757 Main Street",
      "city": "Naperville",
      "state": "IL",
      "zip": "51645",
      "county": "Naperville County",
      "type": "Paid",
      "phone": "",
      "latitude": 41.841865,
      "longitude": -91.186108,
      "status": "OPEN"
    },
    {
      "id": 132,
      "name": "Naperville Fire District - Station 2",
      "address": "1446 Main Street",
      "city": "Naperville",
      "state": "IL",
      "zip": "34070",
      "county": "Naperville County",
      "type": "Career",
      "phone": "",
      "latitude": 39.745726,
      "longitude": -89.637067,
      "status": "OPEN"
    },
    {
      "id": 133,
      "name": "Naperville Fire Protection District - Station 3",
      "address": "9685 Main Street",
      "city": "Naperville",
      "state": "IL",
      "zip": "73707",
      "county": "Naperville County",
      "type": "Combination",
      "phone": "",
      "latitude": 41.463774,
      "longitude": -91.310376,
      "status": "OPEN"
    },
    {
      "id": 134,
      "name": "Rockford Fire-Rescue",
      "address": "3260 Main Street",
      "city": "Rockford",
      "state": "IL",
      "zip": "74955",
      "county": "Rockford County",
      "type": "Combination",
      "phone": "",
      "latitude": 37.190291,
      "longitude": -89.301066,
      "status": "OPEN"
    },
    {
      "id": 135,
      "name": "Rockford Fire Department - Station 2",
      "address": "368 Main Street",
      "city": "Rockford",
      "state": "IL",
      "zip": "25080",
      "county": "Rockford County",
      "type": "Career",
      "phone": "",
      "latitude": 37.344666,
      "longitude": -87.692544,
      "status": "OPEN"
    },
    {
      "id": 136,
      "name": "Joliet Fire-Rescue",
      "address": "6460 Main Street",
      "city": "Joliet",
      "state": "IL",
      "zip": "40985",
      "county": "Joliet County",
      "type": "Career",
      "phone": "",
      "latitude": 41.381658,
      "longitude": -91.056513,
      "status": "OPEN"
    },
    {
      "id": 137,
      "name": "Joliet Fire Protection District - Station 2",
      "address": "8720 Main Street",
      "city": "Joliet",
      "state": "IL",
      "zip": "87686",
      "county": "Joliet County",
      "type": "Paid",
      "phone": "",
      "latitude": 40.558954,
      "longitude": -89.775554,
      "status": "OPEN"
    },
    {
      "id": 138,
      "name": "Joliet Fire Protection District - Station 3",
      "address": "2432 Main Street",
      "city": "Joliet",
      "state": "IL",
      "zip": "75323",
      "county": "Joliet County",
      "type": "Career",
      "phone": "",
      "latitude": 38.270814,
      "longitude": -90.917213,
      "status": "OPEN"
    },
    {
      "id": 139,
      "name": "Springfield Fire Protection District",
      "address": "9832 Main Street",
      "city": "Springfield",
      "state": "IL",
      "zip": "75794",
      "county": "Springfield County",
      "type": "Combination",
      "phone": "",
      "latitude": 37.335924,
      "longitude": -87.453441,
      "status": "OPEN"
    },
    {
      "id": 140,
      "name": "Springfield Fire Protection District - Station 2",
      "address": "717 Main Street",
      "city": "Springfield",
      "state": "IL",
      "zip": "58949",
      "county": "Springfield County",
      "type": "Paid",
      "phone": "",
      "latitude": 37.152157,
      "longitude": -89.989448,
      "status": "OPEN"
    },
    {
      "id": 141,
      "name": "Indianapolis Fire Department",
      "address": "8752 Main Street",
      "city": "Indianapolis",
      "state": "IN",
      "zip": "10576",
      "county": "Indianapolis County",
      "type": "Combination",
      "phone": "",
      "latitude": 38.289876,
      "longitude": -85.457429,
      "status": "OPEN"
    },
    {
      "id": 142,
      "name": "Indianapolis Fire District - Station 2",
      "address": "1621 Main Street",
      "city": "Indianapolis",
      "state": "IN",
      "zip": "68853",
      "county": "Indianapolis County",
      "type": "Combination",
      "phone": "",
      "latitude": 39.077958,
      "longitude": -86.955159,
      "status": "OPEN"
    },
    {
      "id": 143,
      "name": "Indianapolis Volunteer Fire Department - Station 3",
      "address": "5595 Main Street",
      "city": "Indianapolis",
      "state": "IN",
      "zip": "52728",
      "county": "Indianapolis County",
      "type": "Paid",
      "phone": "",
      "latitude": 38.620747,
      "longitude": -86.432389,
      "status": "OPEN"
    },
    {
      "id": 144,
      "name": "Fort Wayne Fire-Rescue",
      "address": "1949 Main Street",
      "city": "Fort Wayne",
      "state": "IN",
      "zip": "99240",
      "county": "Fort Wayne County",
      "type": "Combination",
      "phone": "",
      "latitude": 41.712166,
      "longitude": -86.032633,
      "status": "OPEN"
    },
    {
      "id": 145,
      "name": "Fort Wayne Volunteer Fire Department - Station 2",
      "address": "4195 Main Street",
      "city": "Fort Wayne",
      "state": "IN",
      "zip": "31443",
      "county": "Fort Wayne County",
      "type": "Paid",
      "phone": "",
      "latitude": 40.259887,
      "longitude": -86.184469,
      "status": "OPEN"
    },
    {
      "id": 146,
      "name": "Fort Wayne Fire Protection District - Station 3",
      "address": "4303 Main Street",
      "city": "Fort Wayne",
      "state": "IN",
      "zip": "43554",
      "county": "Fort Wayne County",
      "type": "Paid",
      "phone": "",
      "latitude": 39.444466,
      "longitude": -86.486174,
      "status": "OPEN"
    },
    {
      "id": 147,
      "name": "Evansville Fire-Rescue",
      "address": "6103 Main Street",
      "city": "Evansville",
      "state": "IN",
      "zip": "33118",
      "county": "Evansville County",
      "type": "Combination",
      "phone": "",
      "latitude": 39.097602,
      "longitude": -87.234252,
      "status": "OPEN"
    },
    {
      "id": 148,
      "name": "Evansville Fire Protection District - Station 2",
      "address": "4318 Main Street",
      "city": "Evansville",
      "state": "IN",
      "zip": "48056",
      "county": "Evansville County",
      "type": "Volunteer",
      "phone": "",
      "latitude": 41.093753,
      "longitude": -85.510009,
      "status": "OPEN"
    },
    {
      "id": 149,
      "name": "South Bend Fire Department",
      "address": "2125 Main Street",
      "city": "South Bend",
      "state": "IN",
      "zip": "41688",
      "county": "South Bend County",
      "type": "Paid",
      "phone": "",
      "latitude": 38.564781,
      "longitude": -86.452497,
      "status": "OPEN"
    },
    {
      "id": 150,
      "name": "South Bend Fire District - Station 2",
      "address": "7767 Main Street",
      "city": "South Bend",
      "state": "IN",
      "zip": "19642",
      "county": "South Bend County",
      "type": "Combination",
      "phone": "",
      "latitude": 39.294285,
      "longitude": -85.771922,
      "status": "OPEN"
    },
    {
      "id": 151,
      "name": "Carmel Fire-Rescue",
      "address": "5548 Main Street",
      "city": "Carmel",
      "state": "IN",
      "zip": "16518",
      "county": "Carmel County",
      "type": "Paid",
      "phone": "",
      "latitude": 41.560719,
      "longitude": -85.36639,
      "status": "OPEN"
    },
    {
      "id": 152,
      "name": "Des Moines Fire District",
      "address": "2374 Main Street",
      "city": "Des Moines",
      "state": "IA",
      "zip": "24318",
      "county": "Des Moines County",
      "type": "Volunteer",
      "phone": "",
      "latitude": 42.923823,
      "longitude": -94.361183,
      "status": "OPEN"
    },
    {
      "id": 153,
      "name": "Des Moines Fire District - Station 2",
      "address": "780 Main Street",
      "city": "Des Moines",
      "state": "IA",
      "zip": "10700",
      "county": "Des Moines County",
      "type": "Career",
      "phone": "",
      "latitude": 41.340156,
      "longitude": -91.30807,
      "status": "OPEN"
    },
    {
      "id": 154,
      "name": "Des Moines Fire Department - Station 3",
      "address": "4067 Main Street",
      "city": "Des Moines",
      "state": "IA",
      "zip": "95532",
      "county": "Des Moines County",
      "type": "Career",
      "phone": "",
      "latitude": 42.497997,
      "longitude": -95.324117,
      "status": "OPEN"
    },
    {
      "id": 155,
      "name": "Cedar Rapids Fire-Rescue",
      "address": "8213 Main Street",
      "city": "Cedar Rapids",
      "state": "IA",
      "zip": "70861",
      "county": "Cedar Rapids County",
      "type": "Volunteer",
      "phone": "",
      "latitude": 42.163469,
      "longitude": -93.690195,
      "status": "OPEN"
    },
    {
      "id": 156,
      "name": "Cedar Rapids Fire District - Station 2",
      "address": "5634 Main Street",
      "city": "Cedar Rapids",
      "state": "IA",
      "zip": "60184",
      "county": "Cedar Rapids County",
      "type": "Career",
      "phone": "",
      "latitude": 41.236978,
      "longitude": -90.697158,
      "status": "OPEN"
    },
    {
      "id": 157,
      "name": "Davenport Fire Protection District",
      "address": "1265 Main Street",
      "city": "Davenport",
      "state": "IA",
      "zip": "27148",
      "county": "Davenport County",
      "type": "Paid",
      "phone": "",
      "latitude": 42.992623,
      "longitude": -90.328793,
      "status": "OPEN"
    },
    {
      "id": 158,
      "name": "Davenport Fire District - Station 2",
      "address": "5376 Main Street",
      "city": "Davenport",
      "state": "IA",
      "zip": "91847",
      "county": "Davenport County",
      "type": "Volunteer",
      "phone": "",
      "latitude": 43.437274,
      "longitude": -96.350543,
      "status": "OPEN"
    },
    {
      "id": 159,
      "name": "Davenport Fire Protection District - Station 3",
      "address": "8822 Main Street",
      "city": "Davenport",
      "state": "IA",
      "zip": "67835",
      "county": "Davenport County",
      "type": "Combination",
      "phone": "",
      "latitude": 41.863629,
      "longitude": -94.153768,
      "status": "OPEN"
    },
    {
      "id": 160,
      "name": "Sioux City Volunteer Fire Department",
      "address": "8956 Main Street",
      "city": "Sioux City",
      "state": "IA",
      "zip": "14236",
      "county": "Sioux City County",
      "type": "Combination",
      "phone": "",
      "latitude": 41.135477,
      "longitude": -93.797794,
      "status": "OPEN"
    },
    {
      "id": 161,
      "name": "Iowa City Fire Department",
      "address": "2144 Main Street",
      "city": "Iowa City",
      "state": "IA",
      "zip": "10584",
      "county": "Iowa City County",
      "type": "Combination",
      "phone": "",
      "latitude": 43.204982,
      "longitude": -91.969134,
      "status": "OPEN"
    },
    {
      "id": 162,
      "name": "Wichita Fire-Rescue",
      "address": "9346 Main Street",
      "city": "Wichita",
      "state": "KS",
      "zip": "82401",
      "county": "Wichita County",
      "type": "Volunteer",
      "phone": "",
      "latitude": 38.889328,
      "longitude": -100.393915,
      "status": "OPEN"
    },
    {
      "id": 163,
      "name": "Wichita Fire District - Station 2",
      "address": "3023 Main Street",
      "city": "Wichita",
      "state": "KS",
      "zip": "49137",
      "county": "Wichita County",
      "type": "Paid",
      "phone": "",
      "latitude": 39.34115,
      "longitude": -97.121546,
      "status": "OPEN"
    },
    {
      "id": 164,
      "name": "Overland Park Volunteer Fire Department",
      "address": "4953 Main Street",
      "city": "Overland Park",
      "state": "KS",
      "zip": "81726",
      "county": "Overland Park County",
      "type": "Volunteer",
      "phone": "",
      "latitude": 39.523004,
      "longitude": -95.062935,
      "status": "OPEN"
    },
    {
      "id": 165,
      "name": "Overland Park Fire Department - Station 2",
      "address": "8476 Main Street",
      "city": "Overland Park",
      "state": "KS",
      "zip": "50942",
      "county": "Overland Park County",
      "type": "Volunteer",
      "phone": "",
      "latitude": 38.897054,
      "longitude": -96.777149,
      "status": "OPEN"
    },
    {
      "id": 166,
      "name": "Overland Park Volunteer Fire Department - Station 3",
      "address": "2572 Main Street",
      "city": "Overland Park",
      "state": "KS",
      "zip": "67895",
      "county": "Overland Park County",
      "type": "Volunteer",
      "phone": "",
      "latitude": 39.95668,
      "longitude": -95.257881,
      "status": "OPEN"
    },
    {
      "id": 167,
      "name": "Kansas City Fire District",
      "address": "3965 Main Street",
      "city": "Kansas City",
      "state": "KS",
      "zip": "43735",
      "county": "Kansas City County",
      "type": "Career",
      "phone": "",
      "latitude": 39.300349,
      "longitude": -101.408951,
      "status": "OPEN"
    },
    {
      "id": 168,
      "name": "Kansas City Volunteer Fire Department - Station 2",
      "address": "7901 Main Street",
      "city": "Kansas City",
      "state": "KS",
      "zip": "94712",
      "county": "Kansas City County",
      "type": "Volunteer",
      "phone": "",
      "latitude": 37.977182,
      "longitude": -101.622938,
      "status": "OPEN"
    },
    {
      "id": 169,
      "name": "Olathe Fire-Rescue",
      "address": "9270 Main Street",
      "city": "Olathe",
      "state": "KS",
      "zip": "23615",
      "county": "Olathe County",
      "type": "Combination",
      "phone": "",
      "latitude": 39.364488,
      "longitude": -97.023498,
      "status": "OPEN"
    },
    {
      "id": 170,
      "name": "Topeka Fire Protection District",
      "address": "8475 Main Street",
      "city": "Topeka",
      "state": "KS",
      "zip": "27116",
      "county": "Topeka County",
      "type": "Paid",
      "phone": "",
      "latitude": 38.573023,
      "longitude": -100.496537,
      "status": "OPEN"
    },
    {
      "id": 171,
      "name": "Topeka Fire District - Station 2",
      "address": "4808 Main Street",
      "city": "Topeka",
      "state": "KS",
      "zip": "64364",
      "county": "Topeka County",
      "type": "Paid",
      "phone": "",
      "latitude": 38.252092,
      "longitude": -100.584018,
      "status": "OPEN"
    },
    {
      "id": 172,
      "name": "Lawrence Fire-Rescue",
      "address": "8730 Main Street",
      "city": "Lawrence",
      "state": "KS",
      "zip": "91906",
      "county": "Lawrence County",
      "type": "Volunteer",
      "phone": "",
      "latitude": 37.071922,
      "longitude": -95.348035,
      "status": "OPEN"
    },
    {
      "id": 173,
      "name": "Louisville Fire-Rescue",
      "address": "2073 Main Street",
      "city": "Louisville",
      "state": "KY",
      "zip": "72884",
      "county": "Louisville County",
      "type": "Paid",
      "phone": "",
      "latitude": 37.051624,
      "longitude": -84.305536,
      "status": "OPEN"
    },
    {
      "id": 174,
      "name": "Louisville Fire Protection District - Station 2",
      "address": "5017 Main Street",
      "city": "Louisville",
      "state": "KY",
      "zip": "66682",
      "county": "Louisville County",
      "type": "Volunteer",
      "phone": "",
      "latitude": 36.588422,
      "longitude": -86.64674,
      "status": "OPEN"
    },
    {
      "id": 175,
      "name": "Louisville Fire Department - Station 3",
      "address": "6046 Main Street",
      "city": "Louisville",
      "state": "KY",
      "zip": "74346",
      "county": "Louisville County",
      "type": "Paid",
      "phone": "",
      "latitude": 39.08569,
      "longitude": -89.017521,
      "status": "OPEN"
    },
    {
      "id": 176,
      "name": "Lexington Fire-Rescue",
      "address": "3058 Main Street",
      "city": "Lexington",
      "state": "KY",
      "zip": "13059",
      "county": "Lexington County",
      "type": "Volunteer",
      "phone": "",
      "latitude": 38.263343,
      "longitude": -82.023442,
      "status": "OPEN"
    },
    {
      "id": 177,
      "name": "Bowling Green Fire-Rescue",
      "address": "7384 Main Street",
      "city": "Bowling Green",
      "state": "KY",
      "zip": "41768",
      "county": "Bowling Green County",
      "type": "Paid",
      "phone": "",
      "latitude": 37.424433,
      "longitude": -89.555138,
      "status": "OPEN"
    },
    {
      "id": 178,
      "name": "Bowling Green Volunteer Fire Department - Station 2",
      "address": "7816 Main Street",
      "city": "Bowling Green",
      "state": "KY",
      "zip": "85011",
      "county": "Bowling Green County",
      "type": "Volunteer",
      "phone": "",
      "latitude": 36.721469,
      "longitude": -82.361968,
      "status": "OPEN"
    },
    {
      "id": 179,
      "name": "Bowling Green Fire Protection District - Station 3",
      "address": "9730 Main Street",
      "city": "Bowling Green",
      "state": "KY",
      "zip": "26044",
      "county": "Bowling Green County",
      "type": "Combination",
      "phone": "",
      "latitude": 38.179739,
      "longitude": -88.623374,
      "status": "OPEN"
    },
    {
      "id": 180,
      "name": "Owensboro Fire-Rescue",
      "address": "4864 Main Street",
      "city": "Owensboro",
      "state": "KY",
      "zip": "72745",
      "county": "Owensboro County",
      "type": "Volunteer",
      "phone": "",
      "latitude": 39.087088,
      "longitude": -82.103832,
      "status": "OPEN"
    },
    {
      "id": 181,
      "name": "Owensboro Fire Department - Station 2",
      "address": "9677 Main Street",
      "city": "Owensboro",
      "state": "KY",
      "zip": "59096",
      "county": "Owensboro County",
      "type": "Volunteer",
      "phone": "",
      "latitude": 38.388789,
      "longitude": -83.841826,
      "status": "OPEN"
    },
    {
      "id": 182,
      "name": "Covington Fire Protection District",
      "address": "2057 Main Street",
      "city": "Covington",
      "state": "KY",
      "zip": "38405",
      "county": "Covington County",
      "type": "Career",
      "phone": "",
      "latitude": 37.290984,
      "longitude": -84.597141,
      "status": "OPEN"
    },
    {
      "id": 183,
      "name": "Covington Fire Department - Station 2",
      "address": "8505 Main Street",
      "city": "Covington",
      "state": "KY",
      "zip": "45355",
      "county": "Covington County",
      "type": "Career",
      "phone": "",
      "latitude": 37.114699,
      "longitude": -88.250209,
      "status": "OPEN"
    },
    {
      "id": 184,
      "name": "Covington Fire-Rescue - Station 3",
      "address": "6230 Main Street",
      "city": "Covington",
      "state": "KY",
      "zip": "29636",
      "county": "Covington County",
      "type": "Paid",
      "phone": "",
      "latitude": 37.670422,
      "longitude": -87.800241,
      "status": "OPEN"
    },
    {
      "id": 185,
      "name": "New Orleans Fire-Rescue",
      "address": "7699 Main Street",
      "city": "New Orleans",
      "state": "LA",
      "zip": "82789",
      "county": "New Orleans County",
      "type": "Combination",
      "phone": "",
      "latitude": 31.116511,
      "longitude": -90.751576,
      "status": "OPEN"
    },
    {
      "id": 186,
      "name": "Baton Rouge Fire Department",
      "address": "796 Main Street",
      "city": "Baton Rouge",
      "state": "LA",
      "zip": "70707",
      "county": "Baton Rouge County",
      "type": "Career",
      "phone": "",
      "latitude": 32.808719,
      "longitude": -89.52336,
      "status": "OPEN"
    },
    {
      "id": 187,
      "name": "Baton Rouge Fire-Rescue - Station 2",
      "address": "5311 Main Street",
      "city": "Baton Rouge",
      "state": "LA",
      "zip": "53480",
      "county": "Baton Rouge County",
      "type": "Volunteer",
      "phone": "",
      "latitude": 29.801598,
      "longitude": -93.727485,
      "status": "OPEN"
    },
    {
      "id": 188,
      "name": "Baton Rouge Fire-Rescue - Station 3",
      "address": "302 Main Street",
      "city": "Baton Rouge",
      "state": "LA",
      "zip": "79928",
      "county": "Baton Rouge County",
      "type": "Career",
      "phone": "",
      "latitude": 29.747854,
      "longitude": -91.69247,
      "status": "OPEN"
    },
    {
      "id": 189,
      "name": "Shreveport Fire-Rescue",
      "address": "3527 Main Street",
      "city": "Shreveport",
      "state": "LA",
      "zip": "94811",
      "county": "Shreveport County",
      "type": "Paid",
      "phone": "",
      "latitude": 29.250375,
      "longitude": -92.737553,
      "status": "OPEN"
    },
    {
      "id": 190,
      "name": "Shreveport Fire Protection District - Station 2",
      "address": "4118 Main Street",
      "city": "Shreveport",
      "state": "LA",
      "zip": "17329",
      "county": "Shreveport County",
      "type": "Combination",
      "phone": "",
      "latitude": 30.298028,
      "longitude": -92.616347,
      "status": "OPEN"
    },
    {
      "id": 191,
      "name": "Shreveport Fire Department - Station 3",
      "address": "8190 Main Street",
      "city": "Shreveport",
      "state": "LA",
      "zip": "26047",
      "county": "Shreveport County",
      "type": "Career",
      "phone": "",
      "latitude": 32.449964,
      "longitude": -90.574081,
      "status": "OPEN"
    },
    {
      "id": 192,
      "name": "Lafayette Fire-Rescue",
      "address": "9764 Main Street",
      "city": "Lafayette",
      "state": "LA",
      "zip": "39174",
      "county": "Lafayette County",
      "type": "Career",
      "phone": "",
      "latitude": 29.930716,
      "longitude": -93.245992,
      "status": "OPEN"
    },
    {
      "id": 193,
      "name": "Lafayette Volunteer Fire Department - Station 2",
      "address": "6409 Main Street",
      "city": "Lafayette",
      "state": "LA",
      "zip": "25376",
      "county": "Lafayette County",
      "type": "Career",
      "phone": "",
      "latitude": 30.332132,
      "longitude": -93.114416,
      "status": "OPEN"
    },
    {
      "id": 194,
      "name": "Lake Charles Fire-Rescue",
      "address": "3158 Main Street",
      "city": "Lake Charles",
      "state": "LA",
      "zip": "34463",
      "county": "Lake Charles County",
      "type": "Combination",
      "phone": "",
      "latitude": 31.572742,
      "longitude": -91.966702,
      "status": "OPEN"
    },
    {
      "id": 195,
      "name": "Lake Charles Fire District - Station 2",
      "address": "8150 Main Street",
      "city": "Lake Charles",
      "state": "LA",
      "zip": "16998",
      "county": "Lake Charles County",
      "type": "Career",
      "phone": "",
      "latitude": 32.183657,
      "longitude": -92.486397,
      "status": "OPEN"
    },
    {
      "id": 196,
      "name": "Lake Charles Volunteer Fire Department - Station 3",
      "address": "5368 Main Street",
      "city": "Lake Charles",
      "state": "LA",
      "zip": "28810",
      "county": "Lake Charles County",
      "type": "Career",
      "phone": "",
      "latitude": 30.626448,
      "longitude": -90.430994,
      "status": "OPEN"
    },
    {
      "id": 197,
      "name": "Portland Fire Department",
      "address": "3904 Main Street",
      "city": "Portland",
      "state": "ME",
      "zip": "24938",
      "county": "Portland County",
      "type": "Combination",
      "phone": "",
      "latitude": 44.036726,
      "longitude": -70.82423,
      "status": "OPEN"
    },
    {
      "id": 198,
      "name": "Portland Volunteer Fire Department - Station 2",
      "address": "2649 Main Street",
      "city": "Portland",
      "state": "ME",
      "zip": "41111",
      "county": "Portland County",
      "type": "Paid",
      "phone": "",
      "latitude": 44.601738,
      "longitude": -68.908017,
      "status": "OPEN"
    },
    {
      "id": 199,
      "name": "Lewiston Fire Protection District",
      "address": "8567 Main Street",
      "city": "Lewiston",
      "state": "ME",
      "zip": "66420",
      "county": "Lewiston County",
      "type": "Combination",
      "phone": "",
      "latitude": 45.761234,
      "longitude": -69.937129,
      "status": "OPEN"
    },
    {
      "id": 200,
      "name": "Lewiston Fire District - Station 2",
      "address": "8606 Main Street",
      "city": "Lewiston",
      "state": "ME",
      "zip": "16010",
      "county": "Lewiston County",
      "type": "Career",
      "phone": "",
      "latitude": 44.886701,
      "longitude": -67.268797,
      "status": "OPEN"
    },
    {
      "id": 201,
      "name": "Bangor Fire-Rescue",
      "address": "7937 Main Street",
      "city": "Bangor",
      "state": "ME",
      "zip": "92620",
      "county": "Bangor County",
      "type": "Combination",
      "phone": "",
      "latitude": 44.421032,
      "longitude": -68.603556,
      "status": "OPEN"
    },
    {
      "id": 202,
      "name": "Bangor Fire Department - Station 2",
      "address": "3135 Main Street",
      "city": "Bangor",
      "state": "ME",
      "zip": "69315",
      "county": "Bangor County",
      "type": "Volunteer",
      "phone": "",
      "latitude": 43.698206,
      "longitude": -68.255517,
      "status": "OPEN"
    },
    {
      "id": 203,
      "name": "South Portland Fire District",
      "address": "1076 Main Street",
      "city": "South Portland",
      "state": "ME",
      "zip": "99767",
      "county": "South Portland County",
      "type": "Combination",
      "phone": "",
      "latitude": 46.031704,
      "longitude": -69.270829,
      "status": "OPEN"
    },
    {
      "id": 204,
      "name": "South Portland Fire Department - Station 2",
      "address": "379 Main Street",
      "city": "South Portland",
      "state": "ME",
      "zip": "98245",
      "county": "South Portland County",
      "type": "Combination",
      "phone": "",
      "latitude": 44.85352,
      "longitude": -69.817329,
      "status": "OPEN"
    },
    {
      "id": 205,
      "name": "South Portland Fire-Rescue - Station 3",
      "address": "3110 Main Street",
      "city": "South Portland",
      "state": "ME",
      "zip": "55386",
      "county": "South Portland County",
      "type": "Combination",
      "phone": "",
      "latitude": 46.104331,
      "longitude": -70.863439,
      "status": "OPEN"
    },
    {
      "id": 206,
      "name": "Auburn Volunteer Fire Department",
      "address": "5674 Main Street",
      "city": "Auburn",
      "state": "ME",
      "zip": "85829",
      "county": "Auburn County",
      "type": "Combination",
      "phone": "",
      "latitude": 45.184466,
      "longitude": -67.872527,
      "status": "OPEN"
    },
    {
      "id": 207,
      "name": "Auburn Fire Department - Station 2",
      "address": "2527 Main Street",
      "city": "Auburn",
      "state": "ME",
      "zip": "67969",
      "county": "Auburn County",
      "type": "Volunteer",
      "phone": "",
      "latitude": 46.86635,
      "longitude": -70.386401,
      "status": "OPEN"
    },
    {
      "id": 208,
      "name": "Baltimore Fire Department",
      "address": "1063 Main Street",
      "city": "Baltimore",
      "state": "MD",
      "zip": "20004",
      "county": "Baltimore County",
      "type": "Paid",
      "phone": "",
      "latitude": 38.986027,
      "longitude": -77.234848,
      "status": "OPEN"
    },
    {
      "id": 209,
      "name": "Baltimore Fire District - Station 2",
      "address": "2864 Main Street",
      "city": "Baltimore",
      "state": "MD",
      "zip": "63551",
      "county": "Baltimore County",
      "type": "Career",
      "phone": "",
      "latitude": 38.10499,
      "longitude": -79.359279,
      "status": "OPEN"
    },
    {
      "id": 210,
      "name": "Baltimore Fire Department - Station 3",
      "address": "9839 Main Street",
      "city": "Baltimore",
      "state": "MD",
      "zip": "84123",
      "county": "Baltimore County",
      "type": "Career",
      "phone": "",
      "latitude": 39.475744,
      "longitude": -77.395179,
      "status": "OPEN"
    },
    {
      "id": 211,
      "name": "Frederick Fire-Rescue",
      "address": "5077 Main Street",
      "city": "Frederick",
      "state": "MD",
      "zip": "45785",
      "county": "Frederick County",
      "type": "Volunteer",
      "phone": "",
      "latitude": 38.997639,
      "longitude": -77.060833,
      "status": "OPEN"
    },
    {
      "id": 212,
      "name": "Frederick Fire Protection District - Station 2",
      "address": "7597 Main Street",
      "city": "Frederick",
      "state": "MD",
      "zip": "73058",
      "county": "Frederick County",
      "type": "Paid",
      "phone": "",
      "latitude": 38.388626,
      "longitude": -76.66036,
      "status": "OPEN"
    },
    {
      "id": 213,
      "name": "Frederick Fire Protection District - Station 3",
      "address": "2265 Main Street",
      "city": "Frederick",
      "state": "MD",
      "zip": "80190",
      "county": "Frederick County",
      "type": "Paid",
      "phone": "",
      "latitude": 39.261435,
      "longitude": -75.229553,
      "status": "OPEN"
    },
    {
      "id": 214,
      "name": "Rockville Fire Department",
      "address": "8015 Main Street",
      "city": "Rockville",
      "state": "MD",
      "zip": "74566",
      "county": "Rockville County",
      "type": "Paid",
      "phone": "",
      "latitude": 39.68587,
      "longitude": -75.165969,
      "status": "OPEN"
    },
    {
      "id": 215,
      "name": "Gaithersburg Volunteer Fire Department",
      "address": "8847 Main Street",
      "city": "Gaithersburg",
      "state": "MD",
      "zip": "74463",
      "county": "Gaithersburg County",
      "type": "Paid",
      "phone": "",
      "latitude": 38.41774,
      "longitude": -76.421007,
      "status": "OPEN"
    },
    {
      "id": 216,
      "name": "Bowie Fire-Rescue",
      "address": "5056 Main Street",
      "city": "Bowie",
      "state": "MD",
      "zip": "76166",
      "county": "Bowie County",
      "type": "Combination",
      "phone": "",
      "latitude": 38.743724,
      "longitude": -75.043776,
      "status": "OPEN"
    },
    {
      "id": 217,
      "name": "Bowie Volunteer Fire Department - Station 2",
      "address": "414 Main Street",
      "city": "Bowie",
      "state": "MD",
      "zip": "48979",
      "county": "Bowie County",
      "type": "Career",
      "phone": "",
      "latitude": 39.638268,
      "longitude": -77.89331,
      "status": "OPEN"
    },
    {
      "id": 218,
      "name": "Bowie Fire Department - Station 3",
      "address": "3747 Main Street",
      "city": "Bowie",
      "state": "MD",
      "zip": "72566",
      "county": "Bowie County",
      "type": "Combination",
      "phone": "",
      "latitude": 38.706882,
      "longitude": -77.696648,
      "status": "OPEN"
    },
    {
      "id": 219,
      "name": "Boston Fire Protection District",
      "address": "9611 Main Street",
      "city": "Boston",
      "state": "MA",
      "zip": "53710",
      "county": "Boston County",
      "type": "Paid",
      "phone": "",
      "latitude": 41.4667,
      "longitude": -71.822828,
      "status": "OPEN"
    },
    {
      "id": 220,
      "name": "Worcester Fire Protection District",
      "address": "8853 Main Street",
      "city": "Worcester",
      "state": "MA",
      "zip": "89596",
      "county": "Worcester County",
      "type": "Volunteer",
      "phone": "",
      "latitude": 41.222168,
      "longitude": -70.096961,
      "status": "OPEN"
    },
    {
      "id": 221,
      "name": "Worcester Fire Department - Station 2",
      "address": "4366 Main Street",
      "city": "Worcester",
      "state": "MA",
      "zip": "81709",
      "county": "Worcester County",
      "type": "Paid",
      "phone": "",
      "latitude": 42.596005,
      "longitude": -71.19146,
      "status": "OPEN"
    },
    {
      "id": 222,
      "name": "Springfield Volunteer Fire Department",
      "address": "1597 Main Street",
      "city": "Springfield",
      "state": "MA",
      "zip": "75096",
      "county": "Springfield County",
      "type": "Combination",
      "phone": "",
      "latitude": 42.706507,
      "longitude": -70.147523,
      "status": "OPEN"
    },
    {
      "id": 223,
      "name": "Cambridge Fire Protection District",
      "address": "1024 Main Street",
      "city": "Cambridge",
      "state": "MA",
      "zip": "72703",
      "county": "Cambridge County",
      "type": "Career",
      "phone": "",
      "latitude": 42.563257,
      "longitude": -70.666657,
      "status": "OPEN"
    },
    {
      "id": 224,
      "name": "Cambridge Volunteer Fire Department - Station 2",
      "address": "5956 Main Street",
      "city": "Cambridge",
      "state": "MA",
      "zip": "82147",
      "county": "Cambridge County",
      "type": "Volunteer",
      "phone": "",
      "latitude": 41.236176,
      "longitude": -73.031194,
      "status": "OPEN"
    },
    {
      "id": 225,
      "name": "Lowell Fire Department",
      "address": "9468 Main Street",
      "city": "Lowell",
      "state": "MA",
      "zip": "81147",
      "county": "Lowell County",
      "type": "Paid",
      "phone": "",
      "latitude": 42.092925,
      "longitude": -72.416948,
      "status": "OPEN"
    },
    {
      "id": 226,
      "name": "Detroit Fire-Rescue",
      "address": "8646 Main Street",
      "city": "Detroit",
      "state": "MI",
      "zip": "95248",
      "county": "Detroit County",
      "type": "Paid",
      "phone": "",
      "latitude": 47.201715,
      "longitude": -84.239252,
      "status": "OPEN"
    },
    {
      "id": 227,
      "name": "Detroit Fire Department - Station 2",
      "address": "6615 Main Street",
      "city": "Detroit",
      "state": "MI",
      "zip": "52061",
      "county": "Detroit County",
      "type": "Paid",
      "phone": "",
      "latitude": 45.559573,
      "longitude": -83.399067,
      "status": "OPEN"
    },
    {
      "id": 228,
      "name": "Detroit Fire District - Station 3",
      "address": "4330 Main Street",
      "city": "Detroit",
      "state": "MI",
      "zip": "85325",
      "county": "Detroit County",
      "type": "Combination",
      "phone": "",
      "latitude": 42.213736,
      "longitude": -89.775169,
      "status": "OPEN"
    },
    {
      "id": 229,
      "name": "Grand Rapids Fire Department",
      "address": "2354 Main Street",
      "city": "Grand Rapids",
      "state": "MI",
      "zip": "34266",
      "county": "Grand Rapids County",
      "type": "Combination",
      "phone": "",
      "latitude": 43.74631,
      "longitude": -85.861064,
      "status": "OPEN"
    },
    {
      "id": 230,
      "name": "Grand Rapids Volunteer Fire Department - Station 2",
      "address": "9115 Main Street",
      "city": "Grand Rapids",
      "state": "MI",
      "zip": "94914",
      "county": "Grand Rapids County",
      "type": "Volunteer",
      "phone": "",
      "latitude": 47.007307,
      "longitude": -84.911333,
      "status": "OPEN"
    },
    {
      "id": 231,
      "name": "Grand Rapids Fire Protection District - Station 3",
      "address": "3220 Main Street",
      "city": "Grand Rapids",
      "state": "MI",
      "zip": "85699",
      "county": "Grand Rapids County",
      "type": "Paid",
      "phone": "",
      "latitude": 46.191939,
      "longitude": -82.988401,
      "status": "OPEN"
    },
    {
      "id": 232,
      "name": "Warren Fire Protection District",
      "address": "4893 Main Street",
      "city": "Warren",
      "state": "MI",
      "zip": "52554",
      "county": "Warren County",
      "type": "Combination",
      "phone": "",
      "latitude": 44.553483,
      "longitude": -88.763462,
      "status": "OPEN"
    },
    {
      "id": 233,
      "name": "Sterling Heights Fire-Rescue",
      "address": "6935 Main Street",
      "city": "Sterling Heights",
      "state": "MI",
      "zip": "31121",
      "county": "Sterling Heights County",
      "type": "Combination",
      "phone": "",
      "latitude": 47.920826,
      "longitude": -83.442044,
      "status": "OPEN"
    },
    {
      "id": 234,
      "name": "Sterling Heights Volunteer Fire Department - Station 2",
      "address": "6391 Main Street",
      "city": "Sterling Heights",
      "state": "MI",
      "zip": "83048",
      "county": "Sterling Heights County",
      "type": "Paid",
      "phone": "",
      "latitude": 42.128308,
      "longitude": -86.734244,
      "status": "OPEN"
    },
    {
      "id": 235,
      "name": "Sterling Heights Fire Department - Station 3",
      "address": "1714 Main Street",
      "city": "Sterling Heights",
      "state": "MI",
      "zip": "43065",
      "county": "Sterling Heights County",
      "type": "Combination",
      "phone": "",
      "latitude": 42.576662,
      "longitude": -90.0604,
      "status": "OPEN"
    },
    {
      "id": 236,
      "name": "Ann Arbor Fire Department",
      "address": "3328 Main Street",
      "city": "Ann Arbor",
      "state": "MI",
      "zip": "11076",
      "county": "Ann Arbor County",
      "type": "Volunteer",
      "phone": "",
      "latitude": 48.038568,
      "longitude": -86.464201,
      "status": "OPEN"
    },
    {
      "id": 237,
      "name": "Ann Arbor Fire Protection District - Station 2",
      "address": "9930 Main Street",
      "city": "Ann Arbor",
      "state": "MI",
      "zip": "23791",
      "county": "Ann Arbor County",
      "type": "Paid",
      "phone": "",
      "latitude": 43.41921,
      "longitude": -86.037964,
      "status": "OPEN"
    },
    {
      "id": 238,
      "name": "Ann Arbor Fire District - Station 3",
      "address": "5179 Main Street",
      "city": "Ann Arbor",
      "state": "MI",
      "zip": "16153",
      "county": "Ann Arbor County",
      "type": "Combination",
      "phone": "",
      "latitude": 43.761531,
      "longitude": -89.613042,
      "status": "OPEN"
    },
    {
      "id": 239,
      "name": "Lansing Fire-Rescue",
      "address": "2630 Main Street",
      "city": "Lansing",
      "state": "MI",
      "zip": "61013",
      "county": "Lansing County",
      "type": "Volunteer",
      "phone": "",
      "latitude": 42.96407,
      "longitude": -85.440282,
      "status": "OPEN"
    },
    {
      "id": 240,
      "name": "Minneapolis Fire Department",
      "address": "5670 Main Street",
      "city": "Minneapolis",
      "state": "MN",
      "zip": "90462",
      "county": "Minneapolis County",
      "type": "Combination",
      "phone": "",
      "latitude": 47.978303,
      "longitude": -96.466811,
      "status": "OPEN"
    },
    {
      "id": 241,
      "name": "St. Paul Fire Protection District",
      "address": "6049 Main Street",
      "city": "St. Paul",
      "state": "MN",
      "zip": "57198",
      "county": "St. Paul County",
      "type": "Combination",
      "phone": "",
      "latitude": 47.945052,
      "longitude": -96.519245,
      "status": "OPEN"
    },
    {
      "id": 242,
      "name": "Rochester Fire-Rescue",
      "address": "3262 Main Street",
      "city": "Rochester",
      "state": "MN",
      "zip": "61649",
      "county": "Rochester County",
      "type": "Paid",
      "phone": "",
      "latitude": 47.415202,
      "longitude": -91.591066,
      "status": "OPEN"
    },
    {
      "id": 243,
      "name": "Duluth Volunteer Fire Department",
      "address": "3139 Main Street",
      "city": "Duluth",
      "state": "MN",
      "zip": "68392",
      "county": "Duluth County",
      "type": "Career",
      "phone": "",
      "latitude": 46.573641,
      "longitude": -97.129423,
      "status": "OPEN"
    },
    {
      "id": 244,
      "name": "Duluth Fire District - Station 2",
      "address": "5952 Main Street",
      "city": "Duluth",
      "state": "MN",
      "zip": "99298",
      "county": "Duluth County",
      "type": "Combination",
      "phone": "",
      "latitude": 45.504873,
      "longitude": -92.275297,
      "status": "OPEN"
    },
    {
      "id": 245,
      "name": "Bloomington Volunteer Fire Department",
      "address": "1624 Main Street",
      "city": "Bloomington",
      "state": "MN",
      "zip": "89565",
      "county": "Bloomington County",
      "type": "Career",
      "phone": "",
      "latitude": 46.961313,
      "longitude": -89.733546,
      "status": "OPEN"
    },
    {
      "id": 246,
      "name": "Bloomington Fire District - Station 2",
      "address": "3613 Main Street",
      "city": "Bloomington",
      "state": "MN",
      "zip": "58595",
      "county": "Bloomington County",
      "type": "Career",
      "phone": "",
      "latitude": 45.369383,
      "longitude": -91.650551,
      "status": "OPEN"
    },
    {
      "id": 247,
      "name": "Bloomington Fire Protection District - Station 3",
      "address": "1571 Main Street",
      "city": "Bloomington",
      "state": "MN",
      "zip": "72663",
      "county": "Bloomington County",
      "type": "Combination",
      "phone": "",
      "latitude": 48.667353,
      "longitude": -91.406336,
      "status": "OPEN"
    },
    {
      "id": 248,
      "name": "Jackson Fire-Rescue",
      "address": "2311 Main Street",
      "city": "Jackson",
      "state": "MS",
      "zip": "55676",
      "county": "Jackson County",
      "type": "Volunteer",
      "phone": "",
      "latitude": 30.897957,
      "longitude": -89.879466,
      "status": "OPEN"
    },
    {
      "id": 249,
      "name": "Jackson Fire-Rescue - Station 2",
      "address": "1591 Main Street",
      "city": "Jackson",
      "state": "MS",
      "zip": "80486",
      "county": "Jackson County",
      "type": "Career",
      "phone": "",
      "latitude": 30.237059,
      "longitude": -89.839728,
      "status": "OPEN"
    },
    {
      "id": 250,
      "name": "Jackson Fire Department - Station 3",
      "address": "7948 Main Street",
      "city": "Jackson",
      "state": "MS",
      "zip": "45697",
      "county": "Jackson County",
      "type": "Paid",
      "phone": "",
      "latitude": 32.394075,
      "longitude": -90.000927,
      "status": "OPEN"
    },
    {
      "id": 251,
      "name": "Gulfport Fire Protection District",
      "address": "1825 Main Street",
      "city": "Gulfport",
      "state": "MS",
      "zip": "71624",
      "county": "Gulfport County",
      "type": "Paid",
      "phone": "",
      "latitude": 34.309465,
      "longitude": -91.39501,
      "status": "OPEN"
    },
    {
      "id": 252,
      "name": "Southaven Fire-Rescue",
      "address": "4805 Main Street",
      "city": "Southaven",
      "state": "MS",
      "zip": "71883",
      "county": "Southaven County",
      "type": "Paid",
      "phone": "",
      "latitude": 32.112799,
      "longitude": -88.946896,
      "status": "OPEN"
    },
    {
      "id": 253,
      "name": "Southaven Fire Protection District - Station 2",
      "address": "7812 Main Street",
      "city": "Southaven",
      "state": "MS",
      "zip": "56321",
      "county": "Southaven County",
      "type": "Combination",
      "phone": "",
      "latitude": 30.80754,
      "longitude": -90.588581,
      "status": "OPEN"
    },
    {
      "id": 254,
      "name": "Hattiesburg Fire District",
      "address": "1422 Main Street",
      "city": "Hattiesburg",
      "state": "MS",
      "zip": "29502",
      "county": "Hattiesburg County",
      "type": "Career",
      "phone": "",
      "latitude": 30.201928,
      "longitude": -88.791976,
      "status": "OPEN"
    },
    {
      "id": 255,
      "name": "Biloxi Fire District",
      "address": "9371 Main Street",
      "city": "Biloxi",
      "state": "MS",
      "zip": "61972",
      "county": "Biloxi County",
      "type": "Combination",
      "phone": "",
      "latitude": 34.83477,
      "longitude": -90.277035,
      "status": "OPEN"
    },
    {
      "id": 256,
      "name": "Kansas City Fire-Rescue",
      "address": "1513 Main Street",
      "city": "Kansas City",
      "state": "MO",
      "zip": "71349",
      "county": "Kansas City County",
      "type": "Career",
      "phone": "",
      "latitude": 36.528313,
      "longitude": -92.606021,
      "status": "OPEN"
    },
    {
      "id": 257,
      "name": "Kansas City Fire Department - Station 2",
      "address": "8652 Main Street",
      "city": "Kansas City",
      "state": "MO",
      "zip": "48917",
      "county": "Kansas City County",
      "type": "Paid",
      "phone": "",
      "latitude": 37.577385,
      "longitude": -95.449931,
      "status": "OPEN"
    },
    {
      "id": 258,
      "name": "Kansas City Fire Department - Station 3",
      "address": "5389 Main Street",
      "city": "Kansas City",
      "state": "MO",
      "zip": "79299",
      "county": "Kansas City County",
      "type": "Paid",
      "phone": "",
      "latitude": 38.664354,
      "longitude": -92.641908,
      "status": "OPEN"
    },
    {
      "id": 259,
      "name": "St. Louis Fire Protection District",
      "address": "7168 Main Street",
      "city": "St. Louis",
      "state": "MO",
      "zip": "59424",
      "county": "St. Louis County",
      "type": "Career",
      "phone": "",
      "latitude": 39.843661,
      "longitude": -93.51485,
      "status": "OPEN"
    },
    {
      "id": 260,
      "name": "St. Louis Fire District - Station 2",
      "address": "9306 Main Street",
      "city": "St. Louis",
      "state": "MO",
      "zip": "70397",
      "county": "St. Louis County",
      "type": "Career",
      "phone": "",
      "latitude": 36.68596,
      "longitude": -93.503855,
      "status": "OPEN"
    },
    {
      "id": 261,
      "name": "Springfield Fire District",
      "address": "2098 Main Street",
      "city": "Springfield",
      "state": "MO",
      "zip": "63587",
      "county": "Springfield County",
      "type": "Paid",
      "phone": "",
      "latitude": 39.356837,
      "longitude": -93.80882,
      "status": "OPEN"
    },
    {
      "id": 262,
      "name": "Independence Fire-Rescue",
      "address": "7891 Main Street",
      "city": "Independence",
      "state": "MO",
      "zip": "79867",
      "county": "Independence County",
      "type": "Combination",
      "phone": "",
      "latitude": 38.452495,
      "longitude": -90.955096,
      "status": "OPEN"
    },
    {
      "id": 263,
      "name": "Columbia Fire-Rescue",
      "address": "1962 Main Street",
      "city": "Columbia",
      "state": "MO",
      "zip": "97628",
      "county": "Columbia County",
      "type": "Combination",
      "phone": "",
      "latitude": 39.912614,
      "longitude": -91.335615,
      "status": "OPEN"
    },
    {
      "id": 264,
      "name": "Lee's Summit Fire-Rescue",
      "address": "9089 Main Street",
      "city": "Lee's Summit",
      "state": "MO",
      "zip": "97592",
      "county": "Lee's Summit County",
      "type": "Career",
      "phone": "",
      "latitude": 39.963474,
      "longitude": -92.03725,
      "status": "OPEN"
    },
    {
      "id": 265,
      "name": "Lee's Summit Fire District - Station 2",
      "address": "7073 Main Street",
      "city": "Lee's Summit",
      "state": "MO",
      "zip": "95898",
      "county": "Lee's Summit County",
      "type": "Career",
      "phone": "",
      "latitude": 38.123257,
      "longitude": -92.8632,
      "status": "OPEN"
    },
    {
      "id": 266,
      "name": "Billings Fire-Rescue",
      "address": "3408 Main Street",
      "city": "Billings",
      "state": "MT",
      "zip": "83562",
      "county": "Billings County",
      "type": "Career",
      "phone": "",
      "latitude": 48.963886,
      "longitude": -114.264082,
      "status": "OPEN"
    },
    {
      "id": 267,
      "name": "Billings Fire Department - Station 2",
      "address": "3765 Main Street",
      "city": "Billings",
      "state": "MT",
      "zip": "74161",
      "county": "Billings County",
      "type": "Combination",
      "phone": "",
      "latitude": 47.693736,
      "longitude": -107.338688,
      "status": "OPEN"
    },
    {
      "id": 268,
      "name": "Missoula Fire-Rescue",
      "address": "4954 Main Street",
      "city": "Missoula",
      "state": "MT",
      "zip": "41258",
      "county": "Missoula County",
      "type": "Volunteer",
      "phone": "",
      "latitude": 45.743414,
      "longitude": -115.630716,
      "status": "OPEN"
    },
    {
      "id": 269,
      "name": "Great Falls Volunteer Fire Department",
      "address": "3387 Main Street",
      "city": "Great Falls",
      "state": "MT",
      "zip": "80529",
      "county": "Great Falls County",
      "type": "Volunteer",
      "phone": "",
      "latitude": 46.471984,
      "longitude": -115.470783,
      "status": "OPEN"
    },
    {
      "id": 270,
      "name": "Great Falls Fire District - Station 2",
      "address": "6785 Main Street",
      "city": "Great Falls",
      "state": "MT",
      "zip": "39232",
      "county": "Great Falls County",
      "type": "Career",
      "phone": "",
      "latitude": 46.262046,
      "longitude": -107.33859,
      "status": "OPEN"
    },
    {
      "id": 271,
      "name": "Bozeman Fire-Rescue",
      "address": "503 Main Street",
      "city": "Bozeman",
      "state": "MT",
      "zip": "38666",
      "county": "Bozeman County",
      "type": "Paid",
      "phone": "",
      "latitude": 47.073682,
      "longitude": -109.316783,
      "status": "OPEN"
    },
    {
      "id": 272,
      "name": "Butte Fire-Rescue",
      "address": "9918 Main Street",
      "city": "Butte",
      "state": "MT",
      "zip": "52861",
      "county": "Butte County",
      "type": "Volunteer",
      "phone": "",
      "latitude": 45.894259,
      "longitude": -106.123134,
      "status": "OPEN"
    },
    {
      "id": 273,
      "name": "Butte Fire Protection District - Station 2",
      "address": "3695 Main Street",
      "city": "Butte",
      "state": "MT",
      "zip": "74372",
      "county": "Butte County",
      "type": "Paid",
      "phone": "",
      "latitude": 48.162348,
      "longitude": -109.833329,
      "status": "OPEN"
    },
    {
      "id": 274,
      "name": "Butte Fire Protection District - Station 3",
      "address": "3804 Main Street",
      "city": "Butte",
      "state": "MT",
      "zip": "26875",
      "county": "Butte County",
      "type": "Career",
      "phone": "",
      "latitude": 48.808368,
      "longitude": -114.727673,
      "status": "OPEN"
    },
    {
      "id": 275,
      "name": "Omaha Fire District",
      "address": "6237 Main Street",
      "city": "Omaha",
      "state": "NE",
      "zip": "96020",
      "county": "Omaha County",
      "type": "Combination",
      "phone": "",
      "latitude": 41.565625,
      "longitude": -102.534536,
      "status": "OPEN"
    },
    {
      "id": 276,
      "name": "Omaha Fire Department - Station 2",
      "address": "184 Main Street",
      "city": "Omaha",
      "state": "NE",
      "zip": "58654",
      "county": "Omaha County",
      "type": "Volunteer",
      "phone": "",
      "latitude": 40.513059,
      "longitude": -100.792248,
      "status": "OPEN"
    },
    {
      "id": 277,
      "name": "Lincoln Fire Protection District",
      "address": "5052 Main Street",
      "city": "Lincoln",
      "state": "NE",
      "zip": "37596",
      "county": "Lincoln County",
      "type": "Career",
      "phone": "",
      "latitude": 40.551885,
      "longitude": -96.530653,
      "status": "OPEN"
    },
    {
      "id": 278,
      "name": "Bellevue Fire District",
      "address": "1258 Main Street",
      "city": "Bellevue",
      "state": "NE",
      "zip": "35246",
      "county": "Bellevue County",
      "type": "Paid",
      "phone": "",
      "latitude": 42.29464,
      "longitude": -103.502367,
      "status": "OPEN"
    },
    {
      "id": 279,
      "name": "Bellevue Fire Department - Station 2",
      "address": "2033 Main Street",
      "city": "Bellevue",
      "state": "NE",
      "zip": "35518",
      "county": "Bellevue County",
      "type": "Paid",
      "phone": "",
      "latitude": 40.496493,
      "longitude": -95.86296,
      "status": "OPEN"
    },
    {
      "id": 280,
      "name": "Grand Island Fire Protection District",
      "address": "2383 Main Street",
      "city": "Grand Island",
      "state": "NE",
      "zip": "80508",
      "county": "Grand Island County",
      "type": "Combination",
      "phone": "",
      "latitude": 42.319531,
      "longitude": -103.980916,
      "status": "OPEN"
    },
    {
      "id": 281,
      "name": "Kearney Volunteer Fire Department",
      "address": "7145 Main Street",
      "city": "Kearney",
      "state": "NE",
      "zip": "26980",
      "county": "Kearney County",
      "type": "Career",
      "phone": "",
      "latitude": 40.323246,
      "longitude": -99.296956,
      "status": "OPEN"
    },
    {
      "id": 282,
      "name": "Kearney Fire-Rescue - Station 2",
      "address": "8065 Main Street",
      "city": "Kearney",
      "state": "NE",
      "zip": "80626",
      "county": "Kearney County",
      "type": "Volunteer",
      "phone": "",
      "latitude": 42.627975,
      "longitude": -98.833108,
      "status": "OPEN"
    },
    {
      "id": 283,
      "name": "Kearney Fire Protection District - Station 3",
      "address": "3232 Main Street",
      "city": "Kearney",
      "state": "NE",
      "zip": "72394",
      "county": "Kearney County",
      "type": "Combination",
      "phone": "",
      "latitude": 41.058489,
      "longitude": -103.475746,
      "status": "OPEN"
    },
    {
      "id": 284,
      "name": "Las Vegas Fire-Rescue",
      "address": "4612 Main Street",
      "city": "Las Vegas",
      "state": "NV",
      "zip": "50722",
      "county": "Las Vegas County",
      "type": "Combination",
      "phone": "",
      "latitude": 36.569202,
      "longitude": -117.587002,
      "status": "OPEN"
    },
    {
      "id": 285,
      "name": "Henderson Fire Protection District",
      "address": "7636 Main Street",
      "city": "Henderson",
      "state": "NV",
      "zip": "44260",
      "county": "Henderson County",
      "type": "Career",
      "phone": "",
      "latitude": 41.116499,
      "longitude": -119.746264,
      "status": "OPEN"
    },
    {
      "id": 286,
      "name": "Reno Fire Department",
      "address": "8351 Main Street",
      "city": "Reno",
      "state": "NV",
      "zip": "11028",
      "county": "Reno County",
      "type": "Paid",
      "phone": "",
      "latitude": 38.658858,
      "longitude": -114.617333,
      "status": "OPEN"
    },
    {
      "id": 287,
      "name": "Reno Volunteer Fire Department - Station 2",
      "address": "6678 Main Street",
      "city": "Reno",
      "state": "NV",
      "zip": "96028",
      "county": "Reno County",
      "type": "Paid",
      "phone": "",
      "latitude": 38.377563,
      "longitude": -117.722082,
      "status": "OPEN"
    },
    {
      "id": 288,
      "name": "Reno Fire Protection District - Station 3",
      "address": "7683 Main Street",
      "city": "Reno",
      "state": "NV",
      "zip": "55232",
      "county": "Reno County",
      "type": "Paid",
      "phone": "",
      "latitude": 38.504482,
      "longitude": -116.886131,
      "status": "OPEN"
    },
    {
      "id": 289,
      "name": "North Las Vegas Volunteer Fire Department",
      "address": "2092 Main Street",
      "city": "North Las Vegas",
      "state": "NV",
      "zip": "11319",
      "county": "North Las Vegas County",
      "type": "Volunteer",
      "phone": "",
      "latitude": 35.149567,
      "longitude": -115.844256,
      "status": "OPEN"
    },
    {
      "id": 290,
      "name": "North Las Vegas Fire Department - Station 2",
      "address": "2845 Main Street",
      "city": "North Las Vegas",
      "state": "NV",
      "zip": "41301",
      "county": "North Las Vegas County",
      "type": "Combination",
      "phone": "",
      "latitude": 40.779668,
      "longitude": -119.281012,
      "status": "OPEN"
    },
    {
      "id": 291,
      "name": "Sparks Fire District",
      "address": "6040 Main Street",
      "city": "Sparks",
      "state": "NV",
      "zip": "16395",
      "county": "Sparks County",
      "type": "Combination",
      "phone": "",
      "latitude": 40.587207,
      "longitude": -115.465007,
      "status": "OPEN"
    },
    {
      "id": 292,
      "name": "Sparks Fire Department - Station 2",
      "address": "2288 Main Street",
      "city": "Sparks",
      "state": "NV",
      "zip": "31675",
      "county": "Sparks County",
      "type": "Volunteer",
      "phone": "",
      "latitude": 40.533361,
      "longitude": -118.581259,
      "status": "OPEN"
    },
    {
      "id": 293,
      "name": "Manchester Fire-Rescue",
      "address": "1126 Main Street",
      "city": "Manchester",
      "state": "NH",
      "zip": "44449",
      "county": "Manchester County",
      "type": "Paid",
      "phone": "",
      "latitude": 44.938377,
      "longitude": -71.713281,
      "status": "OPEN"
    },
    {
      "id": 294,
      "name": "Nashua Fire Department",
      "address": "7700 Main Street",
      "city": "Nashua",
      "state": "NH",
      "zip": "89879",
      "county": "Nashua County",
      "type": "Combination",
      "phone": "",
      "latitude": 42.721673,
      "longitude": -72.510067,
      "status": "OPEN"
    },
    {
      "id": 295,
      "name": "Concord Fire Department",
      "address": "6625 Main Street",
      "city": "Concord",
      "state": "NH",
      "zip": "18246",
      "county": "Concord County",
      "type": "Combination",
      "phone": "",
      "latitude": 44.891744,
      "longitude": -71.285017,
      "status": "OPEN"
    },
    {
      "id": 296,
      "name": "Concord Volunteer Fire Department - Station 2",
      "address": "119 Main Street",
      "city": "Concord",
      "state": "NH",
      "zip": "86628",
      "county": "Concord County",
      "type": "Career",
      "phone": "",
      "latitude": 44.946883,
      "longitude": -72.47834,
      "status": "OPEN"
    },
    {
      "id": 297,
      "name": "Concord Fire Protection District - Station 3",
      "address": "227 Main Street",
      "city": "Concord",
      "state": "NH",
      "zip": "15469",
      "county": "Concord County",
      "type": "Combination",
      "phone": "",
      "latitude": 43.770153,
      "longitude": -71.033652,
      "status": "OPEN"
    },
    {
      "id": 298,
      "name": "Derry Fire District",
      "address": "3870 Main Street",
      "city": "Derry",
      "state": "NH",
      "zip": "11875",
      "county": "Derry County",
      "type": "Paid",
      "phone": "",
      "latitude": 43.192765,
      "longitude": -70.941957,
      "status": "OPEN"
    },
    {
      "id": 299,
      "name": "Derry Volunteer Fire Department - Station 2",
      "address": "7956 Main Street",
      "city": "Derry",
      "state": "NH",
      "zip": "53517",
      "county": "Derry County",
      "type": "Paid",
      "phone": "",
      "latitude": 44.393903,
      "longitude": -71.629844,
      "status": "OPEN"
    },
    {
      "id": 300,
      "name": "Derry Volunteer Fire Department - Station 3",
      "address": "2498 Main Street",
      "city": "Derry",
      "state": "NH",
      "zip": "92405",
      "county": "Derry County",
      "type": "Combination",
      "phone": "",
      "latitude": 43.841341,
      "longitude": -72.29693,
      "status": "OPEN"
    },
    {
      "id": 301,
      "name": "Dover Volunteer Fire Department",
      "address": "7464 Main Street",
      "city": "Dover",
      "state": "NH",
      "zip": "31794",
      "county": "Dover County",
      "type": "Combination",
      "phone": "",
      "latitude": 44.590192,
      "longitude": -70.786325,
      "status": "OPEN"
    },
    {
      "id": 302,
      "name": "Dover Fire-Rescue - Station 2",
      "address": "2169 Main Street",
      "city": "Dover",
      "state": "NH",
      "zip": "47757",
      "county": "Dover County",
      "type": "Career",
      "phone": "",
      "latitude": 43.535489,
      "longitude": -71.381849,
      "status": "OPEN"
    },
    {
      "id": 303,
      "name": "Dover Volunteer Fire Department - Station 3",
      "address": "1533 Main Street",
      "city": "Dover",
      "state": "NH",
      "zip": "83917",
      "county": "Dover County",
      "type": "Paid",
      "phone": "",
      "latitude": 44.970314,
      "longitude": -72.492329,
      "status": "OPEN"
    },
    {
      "id": 304,
      "name": "Newark Fire Protection District",
      "address": "9144 Main Street",
      "city": "Newark",
      "state": "NJ",
      "zip": "21242",
      "county": "Newark County",
      "type": "Career",
      "phone": "",
      "latitude": 40.056592,
      "longitude": -74.170541,
      "status": "OPEN"
    },
    {
      "id": 305,
      "name": "Jersey City Volunteer Fire Department",
      "address": "200 Main Street",
      "city": "Jersey City",
      "state": "NJ",
      "zip": "99751",
      "county": "Jersey City County",
      "type": "Volunteer",
      "phone": "",
      "latitude": 40.149265,
      "longitude": -74.840225,
      "status": "OPEN"
    },
    {
      "id": 306,
      "name": "Jersey City Fire Protection District - Station 2",
      "address": "4804 Main Street",
      "city": "Jersey City",
      "state": "NJ",
      "zip": "90788",
      "county": "Jersey City County",
      "type": "Career",
      "phone": "",
      "latitude": 39.676663,
      "longitude": -74.150776,
      "status": "OPEN"
    },
    {
      "id": 307,
      "name": "Jersey City Volunteer Fire Department - Station 3",
      "address": "1269 Main Street",
      "city": "Jersey City",
      "state": "NJ",
      "zip": "11176",
      "county": "Jersey City County",
      "type": "Combination",
      "phone": "",
      "latitude": 40.879766,
      "longitude": -73.987443,
      "status": "OPEN"
    },
    {
      "id": 308,
      "name": "Paterson Volunteer Fire Department",
      "address": "821 Main Street",
      "city": "Paterson",
      "state": "NJ",
      "zip": "85814",
      "county": "Paterson County",
      "type": "Combination",
      "phone": "",
      "latitude": 41.382973,
      "longitude": -74.019604,
      "status": "OPEN"
    },
    {
      "id": 309,
      "name": "Paterson Fire Department - Station 2",
      "address": "3003 Main Street",
      "city": "Paterson",
      "state": "NJ",
      "zip": "22966",
      "county": "Paterson County",
      "type": "Volunteer",
      "phone": "",
      "latitude": 40.901761,
      "longitude": -75.129097,
      "status": "OPEN"
    },
    {
      "id": 310,
      "name": "Paterson Fire Department - Station 3",
      "address": "9735 Main Street",
      "city": "Paterson",
      "state": "NJ",
      "zip": "14031",
      "county": "Paterson County",
      "type": "Volunteer",
      "phone": "",
      "latitude": 39.879167,
      "longitude": -74.986889,
      "status": "OPEN"
    },
    {
      "id": 311,
      "name": "Elizabeth Fire Department",
      "address": "9030 Main Street",
      "city": "Elizabeth",
      "state": "NJ",
      "zip": "55980",
      "county": "Elizabeth County",
      "type": "Career",
      "phone": "",
      "latitude": 39.657963,
      "longitude": -74.375611,
      "status": "OPEN"
    },
    {
      "id": 312,
      "name": "Elizabeth Fire Department - Station 2",
      "address": "765 Main Street",
      "city": "Elizabeth",
      "state": "NJ",
      "zip": "17447",
      "county": "Elizabeth County",
      "type": "Combination",
      "phone": "",
      "latitude": 38.923361,
      "longitude": -75.324709,
      "status": "OPEN"
    },
    {
      "id": 313,
      "name": "Elizabeth Fire Protection District - Station 3",
      "address": "6299 Main Street",
      "city": "Elizabeth",
      "state": "NJ",
      "zip": "52654",
      "county": "Elizabeth County",
      "type": "Career",
      "phone": "",
      "latitude": 40.81671,
      "longitude": -74.501799,
      "status": "OPEN"
    },
    {
      "id": 314,
      "name": "Trenton Fire-Rescue",
      "address": "1424 Main Street",
      "city": "Trenton",
      "state": "NJ",
      "zip": "31065",
      "county": "Trenton County",
      "type": "Paid",
      "phone": "",
      "latitude": 40.48367,
      "longitude": -74.795121,
      "status": "OPEN"
    },
    {
      "id": 315,
      "name": "Albuquerque Fire District",
      "address": "7067 Main Street",
      "city": "Albuquerque",
      "state": "NM",
      "zip": "36989",
      "county": "Albuquerque County",
      "type": "Combination",
      "phone": "",
      "latitude": 34.435449,
      "longitude": -103.250894,
      "status": "OPEN"
    },
    {
      "id": 316,
      "name": "Las Cruces Fire Department",
      "address": "7018 Main Street",
      "city": "Las Cruces",
      "state": "NM",
      "zip": "93518",
      "county": "Las Cruces County",
      "type": "Combination",
      "phone": "",
      "latitude": 32.474764,
      "longitude": -107.831278,
      "status": "OPEN"
    },
    {
      "id": 317,
      "name": "Las Cruces Fire-Rescue - Station 2",
      "address": "3092 Main Street",
      "city": "Las Cruces",
      "state": "NM",
      "zip": "73833",
      "county": "Las Cruces County",
      "type": "Career",
      "phone": "",
      "latitude": 32.420148,
      "longitude": -106.718378,
      "status": "OPEN"
    },
    {
      "id": 318,
      "name": "Las Cruces Fire Department - Station 3",
      "address": "955 Main Street",
      "city": "Las Cruces",
      "state": "NM",
      "zip": "52342",
      "county": "Las Cruces County",
      "type": "Combination",
      "phone": "",
      "latitude": 35.470949,
      "longitude": -103.302928,
      "status": "OPEN"
    },
    {
      "id": 319,
      "name": "Rio Rancho Fire Protection District",
      "address": "1729 Main Street",
      "city": "Rio Rancho",
      "state": "NM",
      "zip": "23940",
      "county": "Rio Rancho County",
      "type": "Paid",
      "phone": "",
      "latitude": 34.261721,
      "longitude": -103.297675,
      "status": "OPEN"
    },
    {
      "id": 320,
      "name": "Rio Rancho Fire District - Station 2",
      "address": "1788 Main Street",
      "city": "Rio Rancho",
      "state": "NM",
      "zip": "43272",
      "county": "Rio Rancho County",
      "type": "Volunteer",
      "phone": "",
      "latitude": 36.277857,
      "longitude": -107.187127,
      "status": "OPEN"
    },
    {
      "id": 321,
      "name": "Santa Fe Fire District",
      "address": "5267 Main Street",
      "city": "Santa Fe",
      "state": "NM",
      "zip": "31635",
      "county": "Santa Fe County",
      "type": "Paid",
      "phone": "",
      "latitude": 33.114249,
      "longitude": -106.281748,
      "status": "OPEN"
    },
    {
      "id": 322,
      "name": "Santa Fe Fire District - Station 2",
      "address": "2980 Main Street",
      "city": "Santa Fe",
      "state": "NM",
      "zip": "90164",
      "county": "Santa Fe County",
      "type": "Paid",
      "phone": "",
      "latitude": 33.486287,
      "longitude": -108.371417,
      "status": "OPEN"
    },
    {
      "id": 323,
      "name": "Roswell Volunteer Fire Department",
      "address": "5603 Main Street",
      "city": "Roswell",
      "state": "NM",
      "zip": "83827",
      "county": "Roswell County",
      "type": "Combination",
      "phone": "",
      "latitude": 31.68999,
      "longitude": -103.975364,
      "status": "OPEN"
    },
    {
      "id": 324,
      "name": "Roswell Fire Protection District - Station 2",
      "address": "9291 Main Street",
      "city": "Roswell",
      "state": "NM",
      "zip": "46614",
      "county": "Roswell County",
      "type": "Career",
      "phone": "",
      "latitude": 31.488324,
      "longitude": -106.320177,
      "status": "OPEN"
    },
    {
      "id": 325,
      "name": "New York Fire District",
      "address": "4945 Main Street",
      "city": "New York",
      "state": "NY",
      "zip": "63402",
      "county": "New York County",
      "type": "Paid",
      "phone": "",
      "latitude": 44.25946,
      "longitude": -78.11302,
      "status": "OPEN"
    },
    {
      "id": 326,
      "name": "New York Fire-Rescue - Station 2",
      "address": "3356 Main Street",
      "city": "New York",
      "state": "NY",
      "zip": "23581",
      "county": "New York County",
      "type": "Career",
      "phone": "",
      "latitude": 41.046429,
      "longitude": -78.268534,
      "status": "OPEN"
    },
    {
      "id": 327,
      "name": "Buffalo Fire-Rescue",
      "address": "5940 Main Street",
      "city": "Buffalo",
      "state": "NY",
      "zip": "97513",
      "county": "Buffalo County",
      "type": "Career",
      "phone": "",
      "latitude": 41.371783,
      "longitude": -76.196617,
      "status": "OPEN"
    },
    {
      "id": 328,
      "name": "Buffalo Fire District - Station 2",
      "address": "5820 Main Street",
      "city": "Buffalo",
      "state": "NY",
      "zip": "31920",
      "county": "Buffalo County",
      "type": "Career",
      "phone": "",
      "latitude": 40.625173,
      "longitude": -76.955065,
      "status": "OPEN"
    },
    {
      "id": 329,
      "name": "Buffalo Fire Department - Station 3",
      "address": "5440 Main Street",
      "city": "Buffalo",
      "state": "NY",
      "zip": "38913",
      "county": "Buffalo County",
      "type": "Career",
      "phone": "",
      "latitude": 43.09083,
      "longitude": -73.107007,
      "status": "OPEN"
    },
    {
      "id": 330,
      "name": "Rochester Fire Department",
      "address": "4565 Main Street",
      "city": "Rochester",
      "state": "NY",
      "zip": "70572",
      "county": "Rochester County",
      "type": "Career",
      "phone": "",
      "latitude": 42.618508,
      "longitude": -74.587134,
      "status": "OPEN"
    },
    {
      "id": 331,
      "name": "Rochester Fire-Rescue - Station 2",
      "address": "2403 Main Street",
      "city": "Rochester",
      "state": "NY",
      "zip": "41440",
      "county": "Rochester County",
      "type": "Volunteer",
      "phone": "",
      "latitude": 43.719899,
      "longitude": -73.544496,
      "status": "OPEN"
    },
    {
      "id": 332,
      "name": "Yonkers Fire District",
      "address": "5169 Main Street",
      "city": "Yonkers",
      "state": "NY",
      "zip": "57890",
      "county": "Yonkers County",
      "type": "Volunteer",
      "phone": "",
      "latitude": 40.667372,
      "longitude": -72.08427,
      "status": "OPEN"
    },
    {
      "id": 333,
      "name": "Syracuse Volunteer Fire Department",
      "address": "2812 Main Street",
      "city": "Syracuse",
      "state": "NY",
      "zip": "44806",
      "county": "Syracuse County",
      "type": "Volunteer",
      "phone": "",
      "latitude": 41.53917,
      "longitude": -74.240646,
      "status": "OPEN"
    },
    {
      "id": 334,
      "name": "Syracuse Volunteer Fire Department - Station 2",
      "address": "9613 Main Street",
      "city": "Syracuse",
      "state": "NY",
      "zip": "20067",
      "county": "Syracuse County",
      "type": "Paid",
      "phone": "",
      "latitude": 44.990802,
      "longitude": -79.529439,
      "status": "OPEN"
    },
    {
      "id": 335,
      "name": "Syracuse Volunteer Fire Department - Station 3",
      "address": "2741 Main Street",
      "city": "Syracuse",
      "state": "NY",
      "zip": "46826",
      "county": "Syracuse County",
      "type": "Paid",
      "phone": "",
      "latitude": 44.903972,
      "longitude": -76.540119,
      "status": "OPEN"
    },
    {
      "id": 336,
      "name": "Albany Fire Department",
      "address": "1284 Main Street",
      "city": "Albany",
      "state": "NY",
      "zip": "70186",
      "county": "Albany County",
      "type": "Paid",
      "phone": "",
      "latitude": 44.33146,
      "longitude": -72.220107,
      "status": "OPEN"
    },
    {
      "id": 337,
      "name": "Albany Fire Protection District - Station 2",
      "address": "4138 Main Street",
      "city": "Albany",
      "state": "NY",
      "zip": "61560",
      "county": "Albany County",
      "type": "Combination",
      "phone": "",
      "latitude": 43.801806,
      "longitude": -75.450999,
      "status": "OPEN"
    },
    {
      "id": 338,
      "name": "Charlotte Fire Department",
      "address": "5321 Main Street",
      "city": "Charlotte",
      "state": "NC",
      "zip": "89040",
      "county": "Charlotte County",
      "type": "Career",
      "phone": "",
      "latitude": 34.750765,
      "longitude": -81.904347,
      "status": "OPEN"
    },
    {
      "id": 339,
      "name": "Charlotte Fire Department - Station 2",
      "address": "6697 Main Street",
      "city": "Charlotte",
      "state": "NC",
      "zip": "79910",
      "county": "Charlotte County",
      "type": "Paid",
      "phone": "",
      "latitude": 36.532204,
      "longitude": -76.33527,
      "status": "OPEN"
    },
    {
      "id": 340,
      "name": "Charlotte Fire-Rescue - Station 3",
      "address": "9161 Main Street",
      "city": "Charlotte",
      "state": "NC",
      "zip": "77131",
      "county": "Charlotte County",
      "type": "Combination",
      "phone": "",
      "latitude": 33.817487,
      "longitude": -80.883679,
      "status": "OPEN"
    },
    {
      "id": 341,
      "name": "Raleigh Fire Protection District",
      "address": "4856 Main Street",
      "city": "Raleigh",
      "state": "NC",
      "zip": "54868",
      "county": "Raleigh County",
      "type": "Career",
      "phone": "",
      "latitude": 36.585907,
      "longitude": -79.936854,
      "status": "OPEN"
    },
    {
      "id": 342,
      "name": "Raleigh Fire Protection District - Station 2",
      "address": "7702 Main Street",
      "city": "Raleigh",
      "state": "NC",
      "zip": "98916",
      "county": "Raleigh County",
      "type": "Career",
      "phone": "",
      "latitude": 34.46014,
      "longitude": -79.880441,
      "status": "OPEN"
    },
    {
      "id": 343,
      "name": "Greensboro Fire Protection District",
      "address": "6330 Main Street",
      "city": "Greensboro",
      "state": "NC",
      "zip": "67840",
      "county": "Greensboro County",
      "type": "Combination",
      "phone": "",
      "latitude": 34.826851,
      "longitude": -83.025613,
      "status": "OPEN"
    },
    {
      "id": 344,
      "name": "Greensboro Fire Protection District - Station 2",
      "address": "2190 Main Street",
      "city": "Greensboro",
      "state": "NC",
      "zip": "61976",
      "county": "Greensboro County",
      "type": "Paid",
      "phone": "",
      "latitude": 35.037932,
      "longitude": -82.438938,
      "status": "OPEN"
    },
    {
      "id": 345,
      "name": "Durham Fire Department",
      "address": "3895 Main Street",
      "city": "Durham",
      "state": "NC",
      "zip": "25226",
      "county": "Durham County",
      "type": "Paid",
      "phone": "",
      "latitude": 34.006845,
      "longitude": -77.637732,
      "status": "OPEN"
    },
    {
      "id": 346,
      "name": "Durham Fire-Rescue - Station 2",
      "address": "725 Main Street",
      "city": "Durham",
      "state": "NC",
      "zip": "74685",
      "county": "Durham County",
      "type": "Volunteer",
      "phone": "",
      "latitude": 35.818442,
      "longitude": -82.344269,
      "status": "OPEN"
    },
    {
      "id": 347,
      "name": "Winston-Salem Volunteer Fire Department",
      "address": "7317 Main Street",
      "city": "Winston-Salem",
      "state": "NC",
      "zip": "93221",
      "county": "Winston-Salem County",
      "type": "Career",
      "phone": "",
      "latitude": 33.961356,
      "longitude": -80.678491,
      "status": "OPEN"
    },
    {
      "id": 348,
      "name": "Winston-Salem Volunteer Fire Department - Station 2",
      "address": "5037 Main Street",
      "city": "Winston-Salem",
      "state": "NC",
      "zip": "41769",
      "county": "Winston-Salem County",
      "type": "Paid",
      "phone": "",
      "latitude": 33.932657,
      "longitude": -82.173107,
      "status": "OPEN"
    },
    {
      "id": 349,
      "name": "Fayetteville Fire-Rescue",
      "address": "9863 Main Street",
      "city": "Fayetteville",
      "state": "NC",
      "zip": "91683",
      "county": "Fayetteville County",
      "type": "Volunteer",
      "phone": "",
      "latitude": 35.623665,
      "longitude": -80.364603,
      "status": "OPEN"
    },
    {
      "id": 350,
      "name": "Fayetteville Volunteer Fire Department - Station 2",
      "address": "7443 Main Street",
      "city": "Fayetteville",
      "state": "NC",
      "zip": "20594",
      "county": "Fayetteville County",
      "type": "Paid",
      "phone": "",
      "latitude": 34.008341,
      "longitude": -80.950992,
      "status": "OPEN"
    },
    {
      "id": 351,
      "name": "Fargo Fire-Rescue",
      "address": "3044 Main Street",
      "city": "Fargo",
      "state": "ND",
      "zip": "44683",
      "county": "Fargo County",
      "type": "Paid",
      "phone": "",
      "latitude": 47.070804,
      "longitude": -96.879389,
      "status": "OPEN"
    },
    {
      "id": 352,
      "name": "Fargo Fire Protection District - Station 2",
      "address": "2756 Main Street",
      "city": "Fargo",
      "state": "ND",
      "zip": "82968",
      "county": "Fargo County",
      "type": "Paid",
      "phone": "",
      "latitude": 46.62955,
      "longitude": -103.686969,
      "status": "OPEN"
    },
    {
      "id": 353,
      "name": "Fargo Fire Protection District - Station 3",
      "address": "7590 Main Street",
      "city": "Fargo",
      "state": "ND",
      "zip": "72968",
      "county": "Fargo County",
      "type": "Career",
      "phone": "",
      "latitude": 46.706041,
      "longitude": -98.107954,
      "status": "OPEN"
    },
    {
      "id": 354,
      "name": "Bismarck Volunteer Fire Department",
      "address": "7745 Main Street",
      "city": "Bismarck",
      "state": "ND",
      "zip": "40290",
      "county": "Bismarck County",
      "type": "Volunteer",
      "phone": "",
      "latitude": 47.311913,
      "longitude": -97.502765,
      "status": "OPEN"
    },
    {
      "id": 355,
      "name": "Grand Forks Fire District",
      "address": "5243 Main Street",
      "city": "Grand Forks",
      "state": "ND",
      "zip": "49588",
      "county": "Grand Forks County",
      "type": "Career",
      "phone": "",
      "latitude": 46.980593,
      "longitude": -97.137276,
      "status": "OPEN"
    },
    {
      "id": 356,
      "name": "Grand Forks Fire Protection District - Station 2",
      "address": "2920 Main Street",
      "city": "Grand Forks",
      "state": "ND",
      "zip": "31630",
      "county": "Grand Forks County",
      "type": "Volunteer",
      "phone": "",
      "latitude": 47.925399,
      "longitude": -103.286322,
      "status": "OPEN"
    },
    {
      "id": 357,
      "name": "Grand Forks Fire Protection District - Station 3",
      "address": "8607 Main Street",
      "city": "Grand Forks",
      "state": "ND",
      "zip": "42781",
      "county": "Grand Forks County",
      "type": "Volunteer",
      "phone": "",
      "latitude": 48.594881,
      "longitude": -98.159353,
      "status": "OPEN"
    },
    {
      "id": 358,
      "name": "Minot Volunteer Fire Department",
      "address": "7567 Main Street",
      "city": "Minot",
      "state": "ND",
      "zip": "33479",
      "county": "Minot County",
      "type": "Combination",
      "phone": "",
      "latitude": 48.520308,
      "longitude": -102.114698,
      "status": "OPEN"
    },
    {
      "id": 359,
      "name": "West Fargo Fire Protection District",
      "address": "5060 Main Street",
      "city": "West Fargo",
      "state": "ND",
      "zip": "71172",
      "county": "West Fargo County",
      "type": "Volunteer",
      "phone": "",
      "latitude": 46.712229,
      "longitude": -100.900229,
      "status": "OPEN"
    },
    {
      "id": 360,
      "name": "Columbus Fire Department",
      "address": "5352 Main Street",
      "city": "Columbus",
      "state": "OH",
      "zip": "59495",
      "county": "Columbus County",
      "type": "Paid",
      "phone": "",
      "latitude": 41.81096,
      "longitude": -81.806685,
      "status": "OPEN"
    },
    {
      "id": 361,
      "name": "Columbus Volunteer Fire Department - Station 2",
      "address": "1545 Main Street",
      "city": "Columbus",
      "state": "OH",
      "zip": "39645",
      "county": "Columbus County",
      "type": "Volunteer",
      "phone": "",
      "latitude": 40.050935,
      "longitude": -80.557421,
      "status": "OPEN"
    },
    {
      "id": 362,
      "name": "Cleveland Volunteer Fire Department",
      "address": "368 Main Street",
      "city": "Cleveland",
      "state": "OH",
      "zip": "93117",
      "county": "Cleveland County",
      "type": "Volunteer",
      "phone": "",
      "latitude": 40.69419,
      "longitude": -81.853441,
      "status": "OPEN"
    },
    {
      "id": 363,
      "name": "Cleveland Fire Protection District - Station 2",
      "address": "1207 Main Street",
      "city": "Cleveland",
      "state": "OH",
      "zip": "10368",
      "county": "Cleveland County",
      "type": "Volunteer",
      "phone": "",
      "latitude": 39.959207,
      "longitude": -84.732776,
      "status": "OPEN"
    },
    {
      "id": 364,
      "name": "Cleveland Fire Department - Station 3",
      "address": "2962 Main Street",
      "city": "Cleveland",
      "state": "OH",
      "zip": "68882",
      "county": "Cleveland County",
      "type": "Career",
      "phone": "",
      "latitude": 41.413793,
      "longitude": -81.291311,
      "status": "OPEN"
    },
    {
      "id": 365,
      "name": "Cincinnati Fire District",
      "address": "4161 Main Street",
      "city": "Cincinnati",
      "state": "OH",
      "zip": "23286",
      "county": "Cincinnati County",
      "type": "Paid",
      "phone": "",
      "latitude": 38.645315,
      "longitude": -84.328905,
      "status": "OPEN"
    },
    {
      "id": 366,
      "name": "Cincinnati Fire District - Station 2",
      "address": "1587 Main Street",
      "city": "Cincinnati",
      "state": "OH",
      "zip": "55360",
      "county": "Cincinnati County",
      "type": "Career",
      "phone": "",
      "latitude": 38.811627,
      "longitude": -81.528729,
      "status": "OPEN"
    },
    {
      "id": 367,
      "name": "Cincinnati Fire Protection District - Station 3",
      "address": "2142 Main Street",
      "city": "Cincinnati",
      "state": "OH",
      "zip": "97554",
      "county": "Cincinnati County",
      "type": "Combination",
      "phone": "",
      "latitude": 39.681737,
      "longitude": -81.026001,
      "status": "OPEN"
    },
    {
      "id": 368,
      "name": "Toledo Fire Protection District",
      "address": "171 Main Street",
      "city": "Toledo",
      "state": "OH",
      "zip": "84693",
      "county": "Toledo County",
      "type": "Paid",
      "phone": "",
      "latitude": 39.59187,
      "longitude": -84.604059,
      "status": "OPEN"
    },
    {
      "id": 369,
      "name": "Akron Fire Department",
      "address": "2112 Main Street",
      "city": "Akron",
      "state": "OH",
      "zip": "24528",
      "county": "Akron County",
      "type": "Paid",
      "phone": "",
      "latitude": 38.753353,
      "longitude": -82.881484,
      "status": "OPEN"
    },
    {
      "id": 370,
      "name": "Akron Fire Protection District - Station 2",
      "address": "6267 Main Street",
      "city": "Akron",
      "state": "OH",
      "zip": "99915",
      "county": "Akron County",
      "type": "Volunteer",
      "phone": "",
      "latitude": 39.512221,
      "longitude": -84.115987,
      "status": "OPEN"
    },
    {
      "id": 371,
      "name": "Dayton Fire Department",
      "address": "171 Main Street",
      "city": "Dayton",
      "state": "OH",
      "zip": "84986",
      "county": "Dayton County",
      "type": "Volunteer",
      "phone": "",
      "latitude": 40.299319,
      "longitude": -83.859784,
      "status": "OPEN"
    },
    {
      "id": 372,
      "name": "Dayton Volunteer Fire Department - Station 2",
      "address": "2878 Main Street",
      "city": "Dayton",
      "state": "OH",
      "zip": "99409",
      "county": "Dayton County",
      "type": "Combination",
      "phone": "",
      "latitude": 41.022224,
      "longitude": -80.952412,
      "status": "OPEN"
    },
    {
      "id": 373,
      "name": "Dayton Fire-Rescue - Station 3",
      "address": "5000 Main Street",
      "city": "Dayton",
      "state": "OH",
      "zip": "42744",
      "county": "Dayton County",
      "type": "Combination",
      "phone": "",
      "latitude": 39.114813,
      "longitude": -80.588178,
      "status": "OPEN"
    },
    {
      "id": 374,
      "name": "Oklahoma City Fire Protection District",
      "address": "165 Main Street",
      "city": "Oklahoma City",
      "state": "OK",
      "zip": "91468",
      "county": "Oklahoma City County",
      "type": "Volunteer",
      "phone": "",
      "latitude": 35.266912,
      "longitude": -102.73943,
      "status": "OPEN"
    },
    {
      "id": 375,
      "name": "Oklahoma City Fire District - Station 2",
      "address": "2096 Main Street",
      "city": "Oklahoma City",
      "state": "OK",
      "zip": "99882",
      "county": "Oklahoma City County",
      "type": "Career",
      "phone": "",
      "latitude": 33.949182,
      "longitude": -101.697959,
      "status": "OPEN"
    },
    {
      "id": 376,
      "name": "Oklahoma City Fire District - Station 3",
      "address": "7470 Main Street",
      "city": "Oklahoma City",
      "state": "OK",
      "zip": "83081",
      "county": "Oklahoma City County",
      "type": "Combination",
      "phone": "",
      "latitude": 35.787629,
      "longitude": -97.118207,
      "status": "OPEN"
    },
    {
      "id": 377,
      "name": "Tulsa Fire Protection District",
      "address": "4918 Main Street",
      "city": "Tulsa",
      "state": "OK",
      "zip": "59882",
      "county": "Tulsa County",
      "type": "Paid",
      "phone": "",
      "latitude": 35.640479,
      "longitude": -95.730936,
      "status": "OPEN"
    },
    {
      "id": 378,
      "name": "Tulsa Fire-Rescue - Station 2",
      "address": "9454 Main Street",
      "city": "Tulsa",
      "state": "OK",
      "zip": "39141",
      "county": "Tulsa County",
      "type": "Paid",
      "phone": "",
      "latitude": 35.553248,
      "longitude": -99.229519,
      "status": "OPEN"
    },
    {
      "id": 379,
      "name": "Tulsa Volunteer Fire Department - Station 3",
      "address": "4472 Main Street",
      "city": "Tulsa",
      "state": "OK",
      "zip": "52446",
      "county": "Tulsa County",
      "type": "Combination",
      "phone": "",
      "latitude": 36.841584,
      "longitude": -95.484147,
      "status": "OPEN"
    },
    {
      "id": 380,
      "name": "Norman Fire Protection District",
      "address": "496 Main Street",
      "city": "Norman",
      "state": "OK",
      "zip": "78509",
      "county": "Norman County",
      "type": "Combination",
      "phone": "",
      "latitude": 36.239668,
      "longitude": -95.348203,
      "status": "OPEN"
    },
    {
      "id": 381,
      "name": "Norman Fire-Rescue - Station 2",
      "address": "2937 Main Street",
      "city": "Norman",
      "state": "OK",
      "zip": "30784",
      "county": "Norman County",
      "type": "Career",
      "phone": "",
      "latitude": 34.951922,
      "longitude": -96.727793,
      "status": "OPEN"
    },
    {
      "id": 382,
      "name": "Broken Arrow Volunteer Fire Department",
      "address": "6539 Main Street",
      "city": "Broken Arrow",
      "state": "OK",
      "zip": "28971",
      "county": "Broken Arrow County",
      "type": "Paid",
      "phone": "",
      "latitude": 36.148267,
      "longitude": -94.69507,
      "status": "OPEN"
    },
    {
      "id": 383,
      "name": "Broken Arrow Volunteer Fire Department - Station 2",
      "address": "3834 Main Street",
      "city": "Broken Arrow",
      "state": "OK",
      "zip": "69676",
      "county": "Broken Arrow County",
      "type": "Combination",
      "phone": "",
      "latitude": 34.86075,
      "longitude": -102.407868,
      "status": "OPEN"
    },
    {
      "id": 384,
      "name": "Lawton Fire District",
      "address": "9191 Main Street",
      "city": "Lawton",
      "state": "OK",
      "zip": "77194",
      "county": "Lawton County",
      "type": "Paid",
      "phone": "",
      "latitude": 33.613388,
      "longitude": -95.937375,
      "status": "OPEN"
    },
    {
      "id": 385,
      "name": "Lawton Fire Department - Station 2",
      "address": "3091 Main Street",
      "city": "Lawton",
      "state": "OK",
      "zip": "94967",
      "county": "Lawton County",
      "type": "Combination",
      "phone": "",
      "latitude": 36.481667,
      "longitude": -102.994357,
      "status": "OPEN"
    },
    {
      "id": 386,
      "name": "Portland Fire Protection District",
      "address": "4654 Main Street",
      "city": "Portland",
      "state": "OR",
      "zip": "15825",
      "county": "Portland County",
      "type": "Volunteer",
      "phone": "",
      "latitude": 45.326685,
      "longitude": -117.885257,
      "status": "OPEN"
    },
    {
      "id": 387,
      "name": "Portland Volunteer Fire Department - Station 2",
      "address": "2143 Main Street",
      "city": "Portland",
      "state": "OR",
      "zip": "96438",
      "county": "Portland County",
      "type": "Volunteer",
      "phone": "",
      "latitude": 42.184124,
      "longitude": -118.641876,
      "status": "OPEN"
    },
    {
      "id": 388,
      "name": "Portland Fire Department - Station 3",
      "address": "3663 Main Street",
      "city": "Portland",
      "state": "OR",
      "zip": "97355",
      "county": "Portland County",
      "type": "Volunteer",
      "phone": "",
      "latitude": 43.118481,
      "longitude": -121.674258,
      "status": "OPEN"
    },
    {
      "id": 389,
      "name": "Salem Fire Department",
      "address": "5432 Main Street",
      "city": "Salem",
      "state": "OR",
      "zip": "34364",
      "county": "Salem County",
      "type": "Paid",
      "phone": "",
      "latitude": 44.122656,
      "longitude": -121.246851,
      "status": "OPEN"
    },
    {
      "id": 390,
      "name": "Eugene Fire Protection District",
      "address": "4261 Main Street",
      "city": "Eugene",
      "state": "OR",
      "zip": "64995",
      "county": "Eugene County",
      "type": "Combination",
      "phone": "",
      "latitude": 45.277156,
      "longitude": -123.181169,
      "status": "OPEN"
    },
    {
      "id": 391,
      "name": "Eugene Fire District - Station 2",
      "address": "8078 Main Street",
      "city": "Eugene",
      "state": "OR",
      "zip": "71604",
      "county": "Eugene County",
      "type": "Paid",
      "phone": "",
      "latitude": 42.921619,
      "longitude": -118.487386,
      "status": "OPEN"
    },
    {
      "id": 392,
      "name": "Gresham Volunteer Fire Department",
      "address": "6905 Main Street",
      "city": "Gresham",
      "state": "OR",
      "zip": "46421",
      "county": "Gresham County",
      "type": "Combination",
      "phone": "",
      "latitude": 45.814694,
      "longitude": -123.769908,
      "status": "OPEN"
    },
    {
      "id": 393,
      "name": "Gresham Fire-Rescue - Station 2",
      "address": "5272 Main Street",
      "city": "Gresham",
      "state": "OR",
      "zip": "34922",
      "county": "Gresham County",
      "type": "Combination",
      "phone": "",
      "latitude": 44.506042,
      "longitude": -117.621128,
      "status": "OPEN"
    },
    {
      "id": 394,
      "name": "Gresham Fire Protection District - Station 3",
      "address": "8575 Main Street",
      "city": "Gresham",
      "state": "OR",
      "zip": "52948",
      "county": "Gresham County",
      "type": "Combination",
      "phone": "",
      "latitude": 44.748122,
      "longitude": -117.951107,
      "status": "OPEN"
    },
    {
      "id": 395,
      "name": "Hillsboro Volunteer Fire Department",
      "address": "3312 Main Street",
      "city": "Hillsboro",
      "state": "OR",
      "zip": "93996",
      "county": "Hillsboro County",
      "type": "Paid",
      "phone": "",
      "latitude": 44.96321,
      "longitude": -123.239316,
      "status": "OPEN"
    },
    {
      "id": 396,
      "name": "Hillsboro Fire Department - Station 2",
      "address": "8919 Main Street",
      "city": "Hillsboro",
      "state": "OR",
      "zip": "10611",
      "county": "Hillsboro County",
      "type": "Combination",
      "phone": "",
      "latitude": 43.706577,
      "longitude": -123.415792,
      "status": "OPEN"
    },
    {
      "id": 397,
      "name": "Bend Fire Department",
      "address": "2534 Main Street",
      "city": "Bend",
      "state": "OR",
      "zip": "35081",
      "county": "Bend County",
      "type": "Career",
      "phone": "",
      "latitude": 44.107965,
      "longitude": -123.810076,
      "status": "OPEN"
    },
    {
      "id": 398,
      "name": "Philadelphia Fire Protection District",
      "address": "5509 Main Street",
      "city": "Philadelphia",
      "state": "PA",
      "zip": "79994",
      "county": "Philadelphia County",
      "type": "Career",
      "phone": "",
      "latitude": 41.901645,
      "longitude": -75.210925,
      "status": "OPEN"
    },
    {
      "id": 399,
      "name": "Philadelphia Fire Protection District - Station 2",
      "address": "7811 Main Street",
      "city": "Philadelphia",
      "state": "PA",
      "zip": "18207",
      "county": "Philadelphia County",
      "type": "Volunteer",
      "phone": "",
      "latitude": 40.246237,
      "longitude": -75.860927,
      "status": "OPEN"
    },
    {
      "id": 400,
      "name": "Philadelphia Volunteer Fire Department - Station 3",
      "address": "5460 Main Street",
      "city": "Philadelphia",
      "state": "PA",
      "zip": "75749",
      "county": "Philadelphia County",
      "type": "Paid",
      "phone": "",
      "latitude": 42.093671,
      "longitude": -77.349183,
      "status": "OPEN"
    },
    {
      "id": 401,
      "name": "Pittsburgh Fire District",
      "address": "6998 Main Street",
      "city": "Pittsburgh",
      "state": "PA",
      "zip": "49070",
      "county": "Pittsburgh County",
      "type": "Paid",
      "phone": "",
      "latitude": 41.568564,
      "longitude": -79.449296,
      "status": "OPEN"
    },
    {
      "id": 402,
      "name": "Pittsburgh Volunteer Fire Department - Station 2",
      "address": "8840 Main Street",
      "city": "Pittsburgh",
      "state": "PA",
      "zip": "97052",
      "county": "Pittsburgh County",
      "type": "Career",
      "phone": "",
      "latitude": 39.828078,
      "longitude": -80.496796,
      "status": "OPEN"
    },
    {
      "id": 403,
      "name": "Pittsburgh Fire Protection District - Station 3",
      "address": "6074 Main Street",
      "city": "Pittsburgh",
      "state": "PA",
      "zip": "98601",
      "county": "Pittsburgh County",
      "type": "Paid",
      "phone": "",
      "latitude": 41.383566,
      "longitude": -80.200587,
      "status": "OPEN"
    },
    {
      "id": 404,
      "name": "Allentown Fire Department",
      "address": "7103 Main Street",
      "city": "Allentown",
      "state": "PA",
      "zip": "41438",
      "county": "Allentown County",
      "type": "Combination",
      "phone": "",
      "latitude": 40.228533,
      "longitude": -75.900478,
      "status": "OPEN"
    },
    {
      "id": 405,
      "name": "Reading Fire Department",
      "address": "9853 Main Street",
      "city": "Reading",
      "state": "PA",
      "zip": "10593",
      "county": "Reading County",
      "type": "Paid",
      "phone": "",
      "latitude": 41.702613,
      "longitude": -79.710857,
      "status": "OPEN"
    },
    {
      "id": 406,
      "name": "Reading Fire District - Station 2",
      "address": "1564 Main Street",
      "city": "Reading",
      "state": "PA",
      "zip": "40306",
      "county": "Reading County",
      "type": "Career",
      "phone": "",
      "latitude": 39.870035,
      "longitude": -78.426551,
      "status": "OPEN"
    },
    {
      "id": 407,
      "name": "Reading Fire Protection District - Station 3",
      "address": "4605 Main Street",
      "city": "Reading",
      "state": "PA",
      "zip": "33397",
      "county": "Reading County",
      "type": "Career",
      "phone": "",
      "latitude": 41.1797,
      "longitude": -80.341291,
      "status": "OPEN"
    },
    {
      "id": 408,
      "name": "Erie Fire-Rescue",
      "address": "784 Main Street",
      "city": "Erie",
      "state": "PA",
      "zip": "83302",
      "county": "Erie County",
      "type": "Combination",
      "phone": "",
      "latitude": 41.362945,
      "longitude": -77.153938,
      "status": "OPEN"
    },
    {
      "id": 409,
      "name": "Erie Fire Protection District - Station 2",
      "address": "4307 Main Street",
      "city": "Erie",
      "state": "PA",
      "zip": "19253",
      "county": "Erie County",
      "type": "Volunteer",
      "phone": "",
      "latitude": 41.00889,
      "longitude": -75.302533,
      "status": "OPEN"
    },
    {
      "id": 410,
      "name": "Erie Fire-Rescue - Station 3",
      "address": "7488 Main Street",
      "city": "Erie",
      "state": "PA",
      "zip": "31546",
      "county": "Erie County",
      "type": "Combination",
      "phone": "",
      "latitude": 40.631131,
      "longitude": -77.547432,
      "status": "OPEN"
    },
    {
      "id": 411,
      "name": "Scranton Fire Department",
      "address": "451 Main Street",
      "city": "Scranton",
      "state": "PA",
      "zip": "35666",
      "county": "Scranton County",
      "type": "Combination",
      "phone": "",
      "latitude": 39.998155,
      "longitude": -79.661378,
      "status": "OPEN"
    },
    {
      "id": 412,
      "name": "Scranton Fire District - Station 2",
      "address": "600 Main Street",
      "city": "Scranton",
      "state": "PA",
      "zip": "81307",
      "county": "Scranton County",
      "type": "Career",
      "phone": "",
      "latitude": 40.470551,
      "longitude": -76.686492,
      "status": "OPEN"
    },
    {
      "id": 413,
      "name": "Scranton Volunteer Fire Department - Station 3",
      "address": "364 Main Street",
      "city": "Scranton",
      "state": "PA",
      "zip": "78537",
      "county": "Scranton County",
      "type": "Career",
      "phone": "",
      "latitude": 41.294755,
      "longitude": -79.581559,
      "status": "OPEN"
    },
    {
      "id": 414,
      "name": "Providence Fire-Rescue",
      "address": "5216 Main Street",
      "city": "Providence",
      "state": "RI",
      "zip": "79070",
      "county": "Providence County",
      "type": "Combination",
      "phone": "",
      "latitude": 41.574904,
      "longitude": -71.579675,
      "status": "OPEN"
    },
    {
      "id": 415,
      "name": "Providence Volunteer Fire Department - Station 2",
      "address": "4302 Main Street",
      "city": "Providence",
      "state": "RI",
      "zip": "94271",
      "county": "Providence County",
      "type": "Paid",
      "phone": "",
      "latitude": 41.438893,
      "longitude": -71.288057,
      "status": "OPEN"
    },
    {
      "id": 416,
      "name": "Warwick Fire Protection District",
      "address": "7228 Main Street",
      "city": "Warwick",
      "state": "RI",
      "zip": "34770",
      "county": "Warwick County",
      "type": "Paid",
      "phone": "",
      "latitude": 41.997172,
      "longitude": -71.108521,
      "status": "OPEN"
    },
    {
      "id": 417,
      "name": "Cranston Fire Protection District",
      "address": "6375 Main Street",
      "city": "Cranston",
      "state": "RI",
      "zip": "57748",
      "county": "Cranston County",
      "type": "Paid",
      "phone": "",
      "latitude": 41.11356,
      "longitude": -71.176925,
      "status": "OPEN"
    },
    {
      "id": 418,
      "name": "Pawtucket Volunteer Fire Department",
      "address": "5547 Main Street",
      "city": "Pawtucket",
      "state": "RI",
      "zip": "12408",
      "county": "Pawtucket County",
      "type": "Combination",
      "phone": "",
      "latitude": 41.196943,
      "longitude": -71.182893,
      "status": "OPEN"
    },
    {
      "id": 419,
      "name": "Pawtucket Fire-Rescue - Station 2",
      "address": "2556 Main Street",
      "city": "Pawtucket",
      "state": "RI",
      "zip": "86432",
      "county": "Pawtucket County",
      "type": "Paid",
      "phone": "",
      "latitude": 41.838442,
      "longitude": -71.773042,
      "status": "OPEN"
    },
    {
      "id": 420,
      "name": "East Providence Fire Department",
      "address": "1306 Main Street",
      "city": "East Providence",
      "state": "RI",
      "zip": "71974",
      "county": "East Providence County",
      "type": "Paid",
      "phone": "",
      "latitude": 41.767625,
      "longitude": -71.485185,
      "status": "OPEN"
    },
    {
      "id": 421,
      "name": "East Providence Fire Department - Station 2",
      "address": "1754 Main Street",
      "city": "East Providence",
      "state": "RI",
      "zip": "75938",
      "county": "East Providence County",
      "type": "Career",
      "phone": "",
      "latitude": 41.935398,
      "longitude": -71.187318,
      "status": "OPEN"
    },
    {
      "id": 422,
      "name": "Charleston Fire Department",
      "address": "7090 Main Street",
      "city": "Charleston",
      "state": "SC",
      "zip": "54538",
      "county": "Charleston County",
      "type": "Paid",
      "phone": "",
      "latitude": 33.486013,
      "longitude": -78.686559,
      "status": "OPEN"
    },
    {
      "id": 423,
      "name": "Charleston Fire Protection District - Station 2",
      "address": "6893 Main Street",
      "city": "Charleston",
      "state": "SC",
      "zip": "30252",
      "county": "Charleston County",
      "type": "Volunteer",
      "phone": "",
      "latitude": 33.506047,
      "longitude": -80.563183,
      "status": "OPEN"
    },
    {
      "id": 424,
      "name": "Charleston Fire-Rescue - Station 3",
      "address": "8109 Main Street",
      "city": "Charleston",
      "state": "SC",
      "zip": "62809",
      "county": "Charleston County",
      "type": "Volunteer",
      "phone": "",
      "latitude": 33.488392,
      "longitude": -83.264265,
      "status": "OPEN"
    },
    {
      "id": 425,
      "name": "Columbia Fire District",
      "address": "7836 Main Street",
      "city": "Columbia",
      "state": "SC",
      "zip": "39977",
      "county": "Columbia County",
      "type": "Career",
      "phone": "",
      "latitude": 32.663042,
      "longitude": -82.909844,
      "status": "OPEN"
    },
    {
      "id": 426,
      "name": "Columbia Fire Department - Station 2",
      "address": "4621 Main Street",
      "city": "Columbia",
      "state": "SC",
      "zip": "53728",
      "county": "Columbia County",
      "type": "Paid",
      "phone": "",
      "latitude": 32.810419,
      "longitude": -81.483944,
      "status": "OPEN"
    },
    {
      "id": 427,
      "name": "North Charleston Fire District",
      "address": "4139 Main Street",
      "city": "North Charleston",
      "state": "SC",
      "zip": "80370",
      "county": "North Charleston County",
      "type": "Career",
      "phone": "",
      "latitude": 32.488218,
      "longitude": -79.56595,
      "status": "OPEN"
    },
    {
      "id": 428,
      "name": "Mount Pleasant Fire Department",
      "address": "5212 Main Street",
      "city": "Mount Pleasant",
      "state": "SC",
      "zip": "67527",
      "county": "Mount Pleasant County",
      "type": "Volunteer",
      "phone": "",
      "latitude": 32.34298,
      "longitude": -81.062063,
      "status": "OPEN"
    },
    {
      "id": 429,
      "name": "Mount Pleasant Fire-Rescue - Station 2",
      "address": "9720 Main Street",
      "city": "Mount Pleasant",
      "state": "SC",
      "zip": "51506",
      "county": "Mount Pleasant County",
      "type": "Volunteer",
      "phone": "",
      "latitude": 33.930572,
      "longitude": -83.293721,
      "status": "OPEN"
    },
    {
      "id": 430,
      "name": "Mount Pleasant Fire-Rescue - Station 3",
      "address": "5529 Main Street",
      "city": "Mount Pleasant",
      "state": "SC",
      "zip": "61705",
      "county": "Mount Pleasant County",
      "type": "Combination",
      "phone": "",
      "latitude": 32.983589,
      "longitude": -80.059284,
      "status": "OPEN"
    },
    {
      "id": 431,
      "name": "Rock Hill Volunteer Fire Department",
      "address": "3330 Main Street",
      "city": "Rock Hill",
      "state": "SC",
      "zip": "12458",
      "county": "Rock Hill County",
      "type": "Career",
      "phone": "",
      "latitude": 32.722329,
      "longitude": -80.575209,
      "status": "OPEN"
    },
    {
      "id": 432,
      "name": "Rock Hill Fire District - Station 2",
      "address": "9911 Main Street",
      "city": "Rock Hill",
      "state": "SC",
      "zip": "46184",
      "county": "Rock Hill County",
      "type": "Paid",
      "phone": "",
      "latitude": 32.477491,
      "longitude": -80.514566,
      "status": "OPEN"
    },
    {
      "id": 433,
      "name": "Sioux Falls Fire Department",
      "address": "6902 Main Street",
      "city": "Sioux Falls",
      "state": "SD",
      "zip": "89442",
      "county": "Sioux Falls County",
      "type": "Paid",
      "phone": "",
      "latitude": 44.012336,
      "longitude": -101.74398,
      "status": "OPEN"
    },
    {
      "id": 434,
      "name": "Rapid City Fire Department",
      "address": "7549 Main Street",
      "city": "Rapid City",
      "state": "SD",
      "zip": "99311",
      "county": "Rapid City County",
      "type": "Paid",
      "phone": "",
      "latitude": 45.60831,
      "longitude": -99.045932,
      "status": "OPEN"
    },
    {
      "id": 435,
      "name": "Rapid City Fire Department - Station 2",
      "address": "5599 Main Street",
      "city": "Rapid City",
      "state": "SD",
      "zip": "37421",
      "county": "Rapid City County",
      "type": "Paid",
      "phone": "",
      "latitude": 42.748687,
      "longitude": -97.042012,
      "status": "OPEN"
    },
    {
      "id": 436,
      "name": "Aberdeen Fire Department",
      "address": "7950 Main Street",
      "city": "Aberdeen",
      "state": "SD",
      "zip": "38874",
      "county": "Aberdeen County",
      "type": "Career",
      "phone": "",
      "latitude": 45.422856,
      "longitude": -101.202972,
      "status": "OPEN"
    },
    {
      "id": 437,
      "name": "Aberdeen Fire Protection District - Station 2",
      "address": "883 Main Street",
      "city": "Aberdeen",
      "state": "SD",
      "zip": "35117",
      "county": "Aberdeen County",
      "type": "Career",
      "phone": "",
      "latitude": 45.218746,
      "longitude": -102.984634,
      "status": "OPEN"
    },
    {
      "id": 438,
      "name": "Brookings Fire Protection District",
      "address": "6809 Main Street",
      "city": "Brookings",
      "state": "SD",
      "zip": "17803",
      "county": "Brookings County",
      "type": "Paid",
      "phone": "",
      "latitude": 44.393383,
      "longitude": -103.362709,
      "status": "OPEN"
    },
    {
      "id": 439,
      "name": "Brookings Fire Protection District - Station 2",
      "address": "4526 Main Street",
      "city": "Brookings",
      "state": "SD",
      "zip": "96166",
      "county": "Brookings County",
      "type": "Combination",
      "phone": "",
      "latitude": 45.171637,
      "longitude": -96.652709,
      "status": "OPEN"
    },
    {
      "id": 440,
      "name": "Watertown Fire Department",
      "address": "8405 Main Street",
      "city": "Watertown",
      "state": "SD",
      "zip": "13022",
      "county": "Watertown County",
      "type": "Paid",
      "phone": "",
      "latitude": 45.619375,
      "longitude": -103.122988,
      "status": "OPEN"
    },
    {
      "id": 441,
      "name": "Watertown Fire Department - Station 2",
      "address": "6839 Main Street",
      "city": "Watertown",
      "state": "SD",
      "zip": "17706",
      "county": "Watertown County",
      "type": "Paid",
      "phone": "",
      "latitude": 45.178168,
      "longitude": -96.926742,
      "status": "OPEN"
    },
    {
      "id": 442,
      "name": "Nashville Fire Department",
      "address": "4347 Main Street",
      "city": "Nashville",
      "state": "TN",
      "zip": "82928",
      "county": "Nashville County",
      "type": "Career",
      "phone": "",
      "latitude": 36.664409,
      "longitude": -82.620817,
      "status": "OPEN"
    },
    {
      "id": 443,
      "name": "Nashville Fire Protection District - Station 2",
      "address": "5659 Main Street",
      "city": "Nashville",
      "state": "TN",
      "zip": "73208",
      "county": "Nashville County",
      "type": "Paid",
      "phone": "",
      "latitude": 35.127751,
      "longitude": -90.000577,
      "status": "OPEN"
    },
    {
      "id": 444,
      "name": "Nashville Volunteer Fire Department - Station 3",
      "address": "8549 Main Street",
      "city": "Nashville",
      "state": "TN",
      "zip": "83338",
      "county": "Nashville County",
      "type": "Career",
      "phone": "",
      "latitude": 35.977454,
      "longitude": -86.162935,
      "status": "OPEN"
    },
    {
      "id": 445,
      "name": "Memphis Fire District",
      "address": "4763 Main Street",
      "city": "Memphis",
      "state": "TN",
      "zip": "87684",
      "county": "Memphis County",
      "type": "Paid",
      "phone": "",
      "latitude": 35.187937,
      "longitude": -84.601155,
      "status": "OPEN"
    },
    {
      "id": 446,
      "name": "Memphis Fire-Rescue - Station 2",
      "address": "3270 Main Street",
      "city": "Memphis",
      "state": "TN",
      "zip": "62579",
      "county": "Memphis County",
      "type": "Combination",
      "phone": "",
      "latitude": 36.050202,
      "longitude": -83.180683,
      "status": "OPEN"
    },
    {
      "id": 447,
      "name": "Knoxville Fire-Rescue",
      "address": "6566 Main Street",
      "city": "Knoxville",
      "state": "TN",
      "zip": "37582",
      "county": "Knoxville County",
      "type": "Volunteer",
      "phone": "",
      "latitude": 36.093662,
      "longitude": -87.871338,
      "status": "OPEN"
    },
    {
      "id": 448,
      "name": "Knoxville Volunteer Fire Department - Station 2",
      "address": "8140 Main Street",
      "city": "Knoxville",
      "state": "TN",
      "zip": "70461",
      "county": "Knoxville County",
      "type": "Volunteer",
      "phone": "",
      "latitude": 35.727063,
      "longitude": -88.983014,
      "status": "OPEN"
    },
    {
      "id": 449,
      "name": "Knoxville Fire Department - Station 3",
      "address": "8148 Main Street",
      "city": "Knoxville",
      "state": "TN",
      "zip": "93501",
      "county": "Knoxville County",
      "type": "Combination",
      "phone": "",
      "latitude": 35.512362,
      "longitude": -88.248531,
      "status": "OPEN"
    },
    {
      "id": 450,
      "name": "Chattanooga Volunteer Fire Department",
      "address": "7161 Main Street",
      "city": "Chattanooga",
      "state": "TN",
      "zip": "89384",
      "county": "Chattanooga County",
      "type": "Paid",
      "phone": "",
      "latitude": 35.159248,
      "longitude": -84.510047,
      "status": "OPEN"
    },
    {
      "id": 451,
      "name": "Chattanooga Fire Protection District - Station 2",
      "address": "1711 Main Street",
      "city": "Chattanooga",
      "state": "TN",
      "zip": "43771",
      "county": "Chattanooga County",
      "type": "Volunteer",
      "phone": "",
      "latitude": 35.566259,
      "longitude": -85.970348,
      "status": "OPEN"
    },
    {
      "id": 452,
      "name": "Clarksville Fire Department",
      "address": "7280 Main Street",
      "city": "Clarksville",
      "state": "TN",
      "zip": "33994",
      "county": "Clarksville County",
      "type": "Volunteer",
      "phone": "",
      "latitude": 35.01758,
      "longitude": -87.652578,
      "status": "OPEN"
    },
    {
      "id": 453,
      "name": "Clarksville Fire District - Station 2",
      "address": "2307 Main Street",
      "city": "Clarksville",
      "state": "TN",
      "zip": "11995",
      "county": "Clarksville County",
      "type": "Paid",
      "phone": "",
      "latitude": 35.423382,
      "longitude": -86.739414,
      "status": "OPEN"
    },
    {
      "id": 454,
      "name": "Clarksville Fire Protection District - Station 3",
      "address": "3019 Main Street",
      "city": "Clarksville",
      "state": "TN",
      "zip": "98737",
      "county": "Clarksville County",
      "type": "Combination",
      "phone": "",
      "latitude": 36.359242,
      "longitude": -82.768734,
      "status": "OPEN"
    },
    {
      "id": 455,
      "name": "Houston Fire-Rescue",
      "address": "2510 Main Street",
      "city": "Houston",
      "state": "TX",
      "zip": "78367",
      "county": "Houston County",
      "type": "Volunteer",
      "phone": "",
      "latitude": 29.068661,
      "longitude": -99.155701,
      "status": "OPEN"
    },
    {
      "id": 456,
      "name": "Houston Fire Protection District - Station 2",
      "address": "9024 Main Street",
      "city": "Houston",
      "state": "TX",
      "zip": "45231",
      "county": "Houston County",
      "type": "Volunteer",
      "phone": "",
      "latitude": 30.007727,
      "longitude": -96.426123,
      "status": "OPEN"
    },
    {
      "id": 457,
      "name": "San Antonio Fire Department",
      "address": "9252 Main Street",
      "city": "San Antonio",
      "state": "TX",
      "zip": "87323",
      "county": "San Antonio County",
      "type": "Volunteer",
      "phone": "",
      "latitude": 27.587792,
      "longitude": -99.957276,
      "status": "OPEN"
    },
    {
      "id": 458,
      "name": "San Antonio Volunteer Fire Department - Station 2",
      "address": "9171 Main Street",
      "city": "San Antonio",
      "state": "TX",
      "zip": "16305",
      "county": "San Antonio County",
      "type": "Combination",
      "phone": "",
      "latitude": 33.830821,
      "longitude": -100.029598,
      "status": "OPEN"
    },
    {
      "id": 459,
      "name": "San Antonio Fire Department - Station 3",
      "address": "1338 Main Street",
      "city": "San Antonio",
      "state": "TX",
      "zip": "97677",
      "county": "San Antonio County",
      "type": "Combination",
      "phone": "",
      "latitude": 30.773201,
      "longitude": -105.458336,
      "status": "OPEN"
    },
    {
      "id": 460,
      "name": "Dallas Volunteer Fire Department",
      "address": "8984 Main Street",
      "city": "Dallas",
      "state": "TX",
      "zip": "14123",
      "county": "Dallas County",
      "type": "Volunteer",
      "phone": "",
      "latitude": 29.733657,
      "longitude": -100.534592,
      "status": "OPEN"
    },
    {
      "id": 461,
      "name": "Dallas Fire Department - Station 2",
      "address": "6484 Main Street",
      "city": "Dallas",
      "state": "TX",
      "zip": "48491",
      "county": "Dallas County",
      "type": "Paid",
      "phone": "",
      "latitude": 26.901571,
      "longitude": -106.522931,
      "status": "OPEN"
    },
    {
      "id": 462,
      "name": "Dallas Fire Department - Station 3",
      "address": "2011 Main Street",
      "city": "Dallas",
      "state": "TX",
      "zip": "55827",
      "county": "Dallas County",
      "type": "Volunteer",
      "phone": "",
      "latitude": 26.927126,
      "longitude": -101.338465,
      "status": "OPEN"
    },
    {
      "id": 463,
      "name": "Austin Fire District",
      "address": "8046 Main Street",
      "city": "Austin",
      "state": "TX",
      "zip": "32838",
      "county": "Austin County",
      "type": "Career",
      "phone": "",
      "latitude": 36.008748,
      "longitude": -100.876388,
      "status": "OPEN"
    },
    {
      "id": 464,
      "name": "Austin Fire-Rescue - Station 2",
      "address": "5852 Main Street",
      "city": "Austin",
      "state": "TX",
      "zip": "35008",
      "county": "Austin County",
      "type": "Paid",
      "phone": "",
      "latitude": 31.456686,
      "longitude": -105.574979,
      "status": "OPEN"
    },
    {
      "id": 465,
      "name": "Austin Volunteer Fire Department - Station 3",
      "address": "1216 Main Street",
      "city": "Austin",
      "state": "TX",
      "zip": "11208",
      "county": "Austin County",
      "type": "Volunteer",
      "phone": "",
      "latitude": 27.093456,
      "longitude": -103.560718,
      "status": "OPEN"
    },
    {
      "id": 466,
      "name": "Fort Worth Fire-Rescue",
      "address": "3924 Main Street",
      "city": "Fort Worth",
      "state": "TX",
      "zip": "84184",
      "county": "Fort Worth County",
      "type": "Paid",
      "phone": "",
      "latitude": 36.345348,
      "longitude": -100.222295,
      "status": "OPEN"
    },
    {
      "id": 467,
      "name": "Fort Worth Fire-Rescue - Station 2",
      "address": "3185 Main Street",
      "city": "Fort Worth",
      "state": "TX",
      "zip": "77474",
      "county": "Fort Worth County",
      "type": "Combination",
      "phone": "",
      "latitude": 27.094874,
      "longitude": -94.278529,
      "status": "OPEN"
    },
    {
      "id": 468,
      "name": "El Paso Fire-Rescue",
      "address": "3144 Main Street",
      "city": "El Paso",
      "state": "TX",
      "zip": "11516",
      "county": "El Paso County",
      "type": "Career",
      "phone": "",
      "latitude": 30.083052,
      "longitude": -102.047239,
      "status": "OPEN"
    },
    {
      "id": 469,
      "name": "Arlington Fire Protection District",
      "address": "4683 Main Street",
      "city": "Arlington",
      "state": "TX",
      "zip": "40982",
      "county": "Arlington County",
      "type": "Paid",
      "phone": "",
      "latitude": 31.142043,
      "longitude": -97.777711,
      "status": "OPEN"
    },
    {
      "id": 470,
      "name": "Arlington Fire Department - Station 2",
      "address": "2470 Main Street",
      "city": "Arlington",
      "state": "TX",
      "zip": "15812",
      "county": "Arlington County",
      "type": "Career",
      "phone": "",
      "latitude": 31.424367,
      "longitude": -96.903028,
      "status": "OPEN"
    },
    {
      "id": 471,
      "name": "Plano Volunteer Fire Department",
      "address": "2407 Main Street",
      "city": "Plano",
      "state": "TX",
      "zip": "81850",
      "county": "Plano County",
      "type": "Combination",
      "phone": "",
      "latitude": 31.172817,
      "longitude": -96.980431,
      "status": "OPEN"
    },
    {
      "id": 472,
      "name": "Plano Fire District - Station 2",
      "address": "7124 Main Street",
      "city": "Plano",
      "state": "TX",
      "zip": "62830",
      "county": "Plano County",
      "type": "Career",
      "phone": "",
      "latitude": 29.164995,
      "longitude": -95.912031,
      "status": "OPEN"
    },
    {
      "id": 473,
      "name": "Salt Lake City Fire Protection District",
      "address": "4309 Main Street",
      "city": "Salt Lake City",
      "state": "UT",
      "zip": "37041",
      "county": "Salt Lake City County",
      "type": "Career",
      "phone": "",
      "latitude": 41.206485,
      "longitude": -110.483467,
      "status": "OPEN"
    },
    {
      "id": 474,
      "name": "Salt Lake City Fire Protection District - Station 2",
      "address": "3580 Main Street",
      "city": "Salt Lake City",
      "state": "UT",
      "zip": "67798",
      "county": "Salt Lake City County",
      "type": "Combination",
      "phone": "",
      "latitude": 40.148116,
      "longitude": -110.288686,
      "status": "OPEN"
    },
    {
      "id": 475,
      "name": "West Valley City Fire District",
      "address": "3584 Main Street",
      "city": "West Valley City",
      "state": "UT",
      "zip": "41938",
      "county": "West Valley City County",
      "type": "Career",
      "phone": "",
      "latitude": 41.861756,
      "longitude": -109.713732,
      "status": "OPEN"
    },
    {
      "id": 476,
      "name": "West Valley City Fire District - Station 2",
      "address": "1428 Main Street",
      "city": "West Valley City",
      "state": "UT",
      "zip": "80520",
      "county": "West Valley City County",
      "type": "Volunteer",
      "phone": "",
      "latitude": 40.808905,
      "longitude": -114.088296,
      "status": "OPEN"
    },
    {
      "id": 477,
      "name": "West Valley City Fire District - Station 3",
      "address": "4514 Main Street",
      "city": "West Valley City",
      "state": "UT",
      "zip": "17757",
      "county": "West Valley City County",
      "type": "Volunteer",
      "phone": "",
      "latitude": 39.666341,
      "longitude": -110.795847,
      "status": "OPEN"
    },
    {
      "id": 478,
      "name": "Provo Fire-Rescue",
      "address": "3833 Main Street",
      "city": "Provo",
      "state": "UT",
      "zip": "59990",
      "county": "Provo County",
      "type": "Volunteer",
      "phone": "",
      "latitude": 41.731219,
      "longitude": -112.606706,
      "status": "OPEN"
    },
    {
      "id": 479,
      "name": "Provo Fire Department - Station 2",
      "address": "2273 Main Street",
      "city": "Provo",
      "state": "UT",
      "zip": "52718",
      "county": "Provo County",
      "type": "Paid",
      "phone": "",
      "latitude": 41.295772,
      "longitude": -110.55909,
      "status": "OPEN"
    },
    {
      "id": 480,
      "name": "West Jordan Fire Protection District",
      "address": "8807 Main Street",
      "city": "West Jordan",
      "state": "UT",
      "zip": "57687",
      "county": "West Jordan County",
      "type": "Paid",
      "phone": "",
      "latitude": 38.88435,
      "longitude": -113.425204,
      "status": "OPEN"
    },
    {
      "id": 481,
      "name": "West Jordan Fire District - Station 2",
      "address": "7014 Main Street",
      "city": "West Jordan",
      "state": "UT",
      "zip": "80893",
      "county": "West Jordan County",
      "type": "Career",
      "phone": "",
      "latitude": 40.823714,
      "longitude": -113.568039,
      "status": "OPEN"
    },
    {
      "id": 482,
      "name": "Orem Fire Protection District",
      "address": "1016 Main Street",
      "city": "Orem",
      "state": "UT",
      "zip": "39837",
      "county": "Orem County",
      "type": "Career",
      "phone": "",
      "latitude": 40.95032,
      "longitude": -112.377618,
      "status": "OPEN"
    },
    {
      "id": 483,
      "name": "Orem Volunteer Fire Department - Station 2",
      "address": "5867 Main Street",
      "city": "Orem",
      "state": "UT",
      "zip": "23395",
      "county": "Orem County",
      "type": "Volunteer",
      "phone": "",
      "latitude": 40.870889,
      "longitude": -113.229602,
      "status": "OPEN"
    },
    {
      "id": 484,
      "name": "Orem Fire Department - Station 3",
      "address": "1792 Main Street",
      "city": "Orem",
      "state": "UT",
      "zip": "94921",
      "county": "Orem County",
      "type": "Volunteer",
      "phone": "",
      "latitude": 37.129328,
      "longitude": -111.335586,
      "status": "OPEN"
    },
    {
      "id": 485,
      "name": "Burlington Fire District",
      "address": "6157 Main Street",
      "city": "Burlington",
      "state": "VT",
      "zip": "49112",
      "county": "Burlington County",
      "type": "Combination",
      "phone": "",
      "latitude": 43.552075,
      "longitude": -71.516671,
      "status": "OPEN"
    },
    {
      "id": 486,
      "name": "South Burlington Fire-Rescue",
      "address": "1282 Main Street",
      "city": "South Burlington",
      "state": "VT",
      "zip": "87920",
      "county": "South Burlington County",
      "type": "Paid",
      "phone": "",
      "latitude": 43.637747,
      "longitude": -72.670173,
      "status": "OPEN"
    },
    {
      "id": 487,
      "name": "South Burlington Fire Protection District - Station 2",
      "address": "4953 Main Street",
      "city": "South Burlington",
      "state": "VT",
      "zip": "24994",
      "county": "South Burlington County",
      "type": "Career",
      "phone": "",
      "latitude": 43.048565,
      "longitude": -72.438995,
      "status": "OPEN"
    },
    {
      "id": 488,
      "name": "Rutland Volunteer Fire Department",
      "address": "2458 Main Street",
      "city": "Rutland",
      "state": "VT",
      "zip": "19625",
      "county": "Rutland County",
      "type": "Career",
      "phone": "",
      "latitude": 44.396128,
      "longitude": -71.875398,
      "status": "OPEN"
    },
    {
      "id": 489,
      "name": "Barre Fire-Rescue",
      "address": "1290 Main Street",
      "city": "Barre",
      "state": "VT",
      "zip": "16639",
      "county": "Barre County",
      "type": "Career",
      "phone": "",
      "latitude": 43.009302,
      "longitude": -71.924941,
      "status": "OPEN"
    },
    {
      "id": 490,
      "name": "Barre Fire Department - Station 2",
      "address": "5927 Main Street",
      "city": "Barre",
      "state": "VT",
      "zip": "56612",
      "county": "Barre County",
      "type": "Career",
      "phone": "",
      "latitude": 43.806407,
      "longitude": -71.628814,
      "status": "OPEN"
    },
    {
      "id": 491,
      "name": "Barre Fire Protection District - Station 3",
      "address": "4583 Main Street",
      "city": "Barre",
      "state": "VT",
      "zip": "75763",
      "county": "Barre County",
      "type": "Combination",
      "phone": "",
      "latitude": 44.293569,
      "longitude": -71.814604,
      "status": "OPEN"
    },
    {
      "id": 492,
      "name": "Montpelier Fire Department",
      "address": "6383 Main Street",
      "city": "Montpelier",
      "state": "VT",
      "zip": "28600",
      "county": "Montpelier County",
      "type": "Volunteer",
      "phone": "",
      "latitude": 44.148533,
      "longitude": -71.666278,
      "status": "OPEN"
    },
    {
      "id": 493,
      "name": "Montpelier Volunteer Fire Department - Station 2",
      "address": "4734 Main Street",
      "city": "Montpelier",
      "state": "VT",
      "zip": "86866",
      "county": "Montpelier County",
      "type": "Volunteer",
      "phone": "",
      "latitude": 43.972182,
      "longitude": -72.308881,
      "status": "OPEN"
    },
    {
      "id": 494,
      "name": "Montpelier Fire District - Station 3",
      "address": "7381 Main Street",
      "city": "Montpelier",
      "state": "VT",
      "zip": "15924",
      "county": "Montpelier County",
      "type": "Volunteer",
      "phone": "",
      "latitude": 43.368348,
      "longitude": -72.604165,
      "status": "OPEN"
    },
    {
      "id": 495,
      "name": "Virginia Beach Fire Department",
      "address": "4282 Main Street",
      "city": "Virginia Beach",
      "state": "VA",
      "zip": "42478",
      "county": "Virginia Beach County",
      "type": "Career",
      "phone": "",
      "latitude": 38.838547,
      "longitude": -82.142309,
      "status": "OPEN"
    },
    {
      "id": 496,
      "name": "Virginia Beach Volunteer Fire Department - Station 2",
      "address": "9162 Main Street",
      "city": "Virginia Beach",
      "state": "VA",
      "zip": "46706",
      "county": "Virginia Beach County",
      "type": "Career",
      "phone": "",
      "latitude": 37.782584,
      "longitude": -80.297044,
      "status": "OPEN"
    },
    {
      "id": 497,
      "name": "Norfolk Fire Department",
      "address": "1580 Main Street",
      "city": "Norfolk",
      "state": "VA",
      "zip": "27059",
      "county": "Norfolk County",
      "type": "Combination",
      "phone": "",
      "latitude": 37.591672,
      "longitude": -76.81023,
      "status": "OPEN"
    },
    {
      "id": 498,
      "name": "Norfolk Fire Protection District - Station 2",
      "address": "6838 Main Street",
      "city": "Norfolk",
      "state": "VA",
      "zip": "88715",
      "county": "Norfolk County",
      "type": "Paid",
      "phone": "",
      "latitude": 39.040815,
      "longitude": -77.308612,
      "status": "OPEN"
    },
    {
      "id": 499,
      "name": "Norfolk Fire-Rescue - Station 3",
      "address": "8040 Main Street",
      "city": "Norfolk",
      "state": "VA",
      "zip": "44669",
      "county": "Norfolk County",
      "type": "Volunteer",
      "phone": "",
      "latitude": 39.357329,
      "longitude": -77.714754,
      "status": "OPEN"
    },
    {
      "id": 500,
      "name": "Chesapeake Fire District",
      "address": "1658 Main Street",
      "city": "Chesapeake",
      "state": "VA",
      "zip": "95202",
      "county": "Chesapeake County",
      "type": "Career",
      "phone": "",
      "latitude": 38.396944,
      "longitude": -79.563928,
      "status": "OPEN"
    },
    {
      "id": 501,
      "name": "Chesapeake Fire-Rescue - Station 2",
      "address": "8224 Main Street",
      "city": "Chesapeake",
      "state": "VA",
      "zip": "25877",
      "county": "Chesapeake County",
      "type": "Combination",
      "phone": "",
      "latitude": 38.431749,
      "longitude": -76.833807,
      "status": "OPEN"
    },
    {
      "id": 502,
      "name": "Chesapeake Volunteer Fire Department - Station 3",
      "address": "3063 Main Street",
      "city": "Chesapeake",
      "state": "VA",
      "zip": "89894",
      "county": "Chesapeake County",
      "type": "Volunteer",
      "phone": "",
      "latitude": 36.784583,
      "longitude": -77.346827,
      "status": "OPEN"
    },
    {
      "id": 503,
      "name": "Richmond Fire Protection District",
      "address": "5239 Main Street",
      "city": "Richmond",
      "state": "VA",
      "zip": "32625",
      "county": "Richmond County",
      "type": "Volunteer",
      "phone": "",
      "latitude": 36.591156,
      "longitude": -79.488702,
      "status": "OPEN"
    },
    {
      "id": 504,
      "name": "Richmond Fire Protection District - Station 2",
      "address": "1471 Main Street",
      "city": "Richmond",
      "state": "VA",
      "zip": "16798",
      "county": "Richmond County",
      "type": "Combination",
      "phone": "",
      "latitude": 36.846136,
      "longitude": -75.98164,
      "status": "OPEN"
    },
    {
      "id": 505,
      "name": "Newport News Fire District",
      "address": "1963 Main Street",
      "city": "Newport News",
      "state": "VA",
      "zip": "40525",
      "county": "Newport News County",
      "type": "Career",
      "phone": "",
      "latitude": 37.736112,
      "longitude": -76.38047,
      "status": "OPEN"
    },
    {
      "id": 506,
      "name": "Newport News Fire District - Station 2",
      "address": "7630 Main Street",
      "city": "Newport News",
      "state": "VA",
      "zip": "18787",
      "county": "Newport News County",
      "type": "Volunteer",
      "phone": "",
      "latitude": 38.256037,
      "longitude": -80.386051,
      "status": "OPEN"
    },
    {
      "id": 507,
      "name": "Newport News Fire Department - Station 3",
      "address": "4208 Main Street",
      "city": "Newport News",
      "state": "VA",
      "zip": "53725",
      "county": "Newport News County",
      "type": "Combination",
      "phone": "",
      "latitude": 37.029545,
      "longitude": -76.509854,
      "status": "OPEN"
    },
    {
      "id": 508,
      "name": "Alexandria Volunteer Fire Department",
      "address": "1686 Main Street",
      "city": "Alexandria",
      "state": "VA",
      "zip": "76304",
      "county": "Alexandria County",
      "type": "Volunteer",
      "phone": "",
      "latitude": 38.387013,
      "longitude": -77.055852,
      "status": "OPEN"
    },
    {
      "id": 509,
      "name": "Seattle Volunteer Fire Department",
      "address": "4588 Main Street",
      "city": "Seattle",
      "state": "WA",
      "zip": "87995",
      "county": "Seattle County",
      "type": "Volunteer",
      "phone": "",
      "latitude": 47.625289,
      "longitude": -123.298673,
      "status": "OPEN"
    },
    {
      "id": 510,
      "name": "Seattle Volunteer Fire Department - Station 2",
      "address": "9092 Main Street",
      "city": "Seattle",
      "state": "WA",
      "zip": "94614",
      "county": "Seattle County",
      "type": "Combination",
      "phone": "",
      "latitude": 46.373864,
      "longitude": -124.739292,
      "status": "OPEN"
    },
    {
      "id": 511,
      "name": "Seattle Fire-Rescue - Station 3",
      "address": "2069 Main Street",
      "city": "Seattle",
      "state": "WA",
      "zip": "43987",
      "county": "Seattle County",
      "type": "Volunteer",
      "phone": "",
      "latitude": 45.991666,
      "longitude": -117.497787,
      "status": "OPEN"
    },
    {
      "id": 512,
      "name": "Spokane Fire-Rescue",
      "address": "9093 Main Street",
      "city": "Spokane",
      "state": "WA",
      "zip": "57752",
      "county": "Spokane County",
      "type": "Career",
      "phone": "",
      "latitude": 48.643916,
      "longitude": -123.847531,
      "status": "OPEN"
    },
    {
      "id": 513,
      "name": "Spokane Fire Protection District - Station 2",
      "address": "3310 Main Street",
      "city": "Spokane",
      "state": "WA",
      "zip": "83400",
      "county": "Spokane County",
      "type": "Volunteer",
      "phone": "",
      "latitude": 46.193263,
      "longitude": -120.260307,
      "status": "OPEN"
    },
    {
      "id": 514,
      "name": "Spokane Volunteer Fire Department - Station 3",
      "address": "7128 Main Street",
      "city": "Spokane",
      "state": "WA",
      "zip": "18603",
      "county": "Spokane County",
      "type": "Career",
      "phone": "",
      "latitude": 45.872032,
      "longitude": -120.402383,
      "status": "OPEN"
    },
    {
      "id": 515,
      "name": "Tacoma Fire Protection District",
      "address": "3560 Main Street",
      "city": "Tacoma",
      "state": "WA",
      "zip": "94559",
      "county": "Tacoma County",
      "type": "Career",
      "phone": "",
      "latitude": 46.150544,
      "longitude": -120.192165,
      "status": "OPEN"
    },
    {
      "id": 516,
      "name": "Tacoma Fire District - Station 2",
      "address": "8505 Main Street",
      "city": "Tacoma",
      "state": "WA",
      "zip": "90031",
      "county": "Tacoma County",
      "type": "Career",
      "phone": "",
      "latitude": 45.900244,
      "longitude": -122.109541,
      "status": "OPEN"
    },
    {
      "id": 517,
      "name": "Vancouver Fire-Rescue",
      "address": "2715 Main Street",
      "city": "Vancouver",
      "state": "WA",
      "zip": "46347",
      "county": "Vancouver County",
      "type": "Career",
      "phone": "",
      "latitude": 45.972024,
      "longitude": -121.96673,
      "status": "OPEN"
    },
    {
      "id": 518,
      "name": "Vancouver Fire-Rescue - Station 2",
      "address": "377 Main Street",
      "city": "Vancouver",
      "state": "WA",
      "zip": "68733",
      "county": "Vancouver County",
      "type": "Paid",
      "phone": "",
      "latitude": 48.782265,
      "longitude": -117.959402,
      "status": "OPEN"
    },
    {
      "id": 519,
      "name": "Bellevue Fire-Rescue",
      "address": "8980 Main Street",
      "city": "Bellevue",
      "state": "WA",
      "zip": "73113",
      "county": "Bellevue County",
      "type": "Paid",
      "phone": "",
      "latitude": 45.585149,
      "longitude": -122.016682,
      "status": "OPEN"
    },
    {
      "id": 520,
      "name": "Kent Fire-Rescue",
      "address": "4086 Main Street",
      "city": "Kent",
      "state": "WA",
      "zip": "48634",
      "county": "Kent County",
      "type": "Combination",
      "phone": "",
      "latitude": 46.528081,
      "longitude": -120.662891,
      "status": "OPEN"
    },
    {
      "id": 521,
      "name": "Charleston Fire Department",
      "address": "2352 Main Street",
      "city": "Charleston",
      "state": "WV",
      "zip": "84923",
      "county": "Charleston County",
      "type": "Career",
      "phone": "",
      "latitude": 38.956672,
      "longitude": -77.769187,
      "status": "OPEN"
    },
    {
      "id": 522,
      "name": "Huntington Fire District",
      "address": "1194 Main Street",
      "city": "Huntington",
      "state": "WV",
      "zip": "74470",
      "county": "Huntington County",
      "type": "Career",
      "phone": "",
      "latitude": 39.306006,
      "longitude": -79.781908,
      "status": "OPEN"
    },
    {
      "id": 523,
      "name": "Huntington Fire-Rescue - Station 2",
      "address": "4566 Main Street",
      "city": "Huntington",
      "state": "WV",
      "zip": "60825",
      "county": "Huntington County",
      "type": "Paid",
      "phone": "",
      "latitude": 37.453092,
      "longitude": -81.164642,
      "status": "OPEN"
    },
    {
      "id": 524,
      "name": "Huntington Fire Department - Station 3",
      "address": "6217 Main Street",
      "city": "Huntington",
      "state": "WV",
      "zip": "45334",
      "county": "Huntington County",
      "type": "Volunteer",
      "phone": "",
      "latitude": 37.664586,
      "longitude": -79.158997,
      "status": "OPEN"
    },
    {
      "id": 525,
      "name": "Morgantown Fire Protection District",
      "address": "8660 Main Street",
      "city": "Morgantown",
      "state": "WV",
      "zip": "93576",
      "county": "Morgantown County",
      "type": "Combination",
      "phone": "",
      "latitude": 37.303976,
      "longitude": -82.127283,
      "status": "OPEN"
    },
    {
      "id": 526,
      "name": "Parkersburg Fire Protection District",
      "address": "5340 Main Street",
      "city": "Parkersburg",
      "state": "WV",
      "zip": "72984",
      "county": "Parkersburg County",
      "type": "Combination",
      "phone": "",
      "latitude": 38.641451,
      "longitude": -82.009905,
      "status": "OPEN"
    },
    {
      "id": 527,
      "name": "Parkersburg Fire Department - Station 2",
      "address": "3544 Main Street",
      "city": "Parkersburg",
      "state": "WV",
      "zip": "25052",
      "county": "Parkersburg County",
      "type": "Combination",
      "phone": "",
      "latitude": 39.121305,
      "longitude": -81.909624,
      "status": "OPEN"
    },
    {
      "id": 528,
      "name": "Parkersburg Fire Department - Station 3",
      "address": "6900 Main Street",
      "city": "Parkersburg",
      "state": "WV",
      "zip": "59252",
      "county": "Parkersburg County",
      "type": "Volunteer",
      "phone": "",
      "latitude": 37.260554,
      "longitude": -79.744804,
      "status": "OPEN"
    },
    {
      "id": 529,
      "name": "Wheeling Fire District",
      "address": "169 Main Street",
      "city": "Wheeling",
      "state": "WV",
      "zip": "96025",
      "county": "Wheeling County",
      "type": "Combination",
      "phone": "",
      "latitude": 37.551537,
      "longitude": -81.010525,
      "status": "OPEN"
    },
    {
      "id": 530,
      "name": "Wheeling Volunteer Fire Department - Station 2",
      "address": "8787 Main Street",
      "city": "Wheeling",
      "state": "WV",
      "zip": "48877",
      "county": "Wheeling County",
      "type": "Combination",
      "phone": "",
      "latitude": 40.580549,
      "longitude": -78.4813,
      "status": "OPEN"
    },
    {
      "id": 531,
      "name": "Milwaukee Fire Protection District",
      "address": "468 Main Street",
      "city": "Milwaukee",
      "state": "WI",
      "zip": "52199",
      "county": "Milwaukee County",
      "type": "Combination",
      "phone": "",
      "latitude": 46.481823,
      "longitude": -92.856172,
      "status": "OPEN"
    },
    {
      "id": 532,
      "name": "Madison Fire Department",
      "address": "8624 Main Street",
      "city": "Madison",
      "state": "WI",
      "zip": "54252",
      "county": "Madison County",
      "type": "Combination",
      "phone": "",
      "latitude": 47.084058,
      "longitude": -86.973526,
      "status": "OPEN"
    },
    {
      "id": 533,
      "name": "Madison Fire-Rescue - Station 2",
      "address": "2532 Main Street",
      "city": "Madison",
      "state": "WI",
      "zip": "62540",
      "county": "Madison County",
      "type": "Career",
      "phone": "",
      "latitude": 46.543675,
      "longitude": -90.049551,
      "status": "OPEN"
    },
    {
      "id": 534,
      "name": "Green Bay Fire Protection District",
      "address": "1504 Main Street",
      "city": "Green Bay",
      "state": "WI",
      "zip": "30523",
      "county": "Green Bay County",
      "type": "Volunteer",
      "phone": "",
      "latitude": 45.222457,
      "longitude": -89.830192,
      "status": "OPEN"
    },
    {
      "id": 535,
      "name": "Kenosha Fire Protection District",
      "address": "9708 Main Street",
      "city": "Kenosha",
      "state": "WI",
      "zip": "53812",
      "county": "Kenosha County",
      "type": "Paid",
      "phone": "",
      "latitude": 46.682702,
      "longitude": -91.855587,
      "status": "OPEN"
    },
    {
      "id": 536,
      "name": "Kenosha Fire-Rescue - Station 2",
      "address": "1664 Main Street",
      "city": "Kenosha",
      "state": "WI",
      "zip": "39860",
      "county": "Kenosha County",
      "type": "Career",
      "phone": "",
      "latitude": 42.51751,
      "longitude": -88.327374,
      "status": "OPEN"
    },
    {
      "id": 537,
      "name": "Racine Fire-Rescue",
      "address": "5496 Main Street",
      "city": "Racine",
      "state": "WI",
      "zip": "44452",
      "county": "Racine County",
      "type": "Volunteer",
      "phone": "",
      "latitude": 43.850184,
      "longitude": -89.222029,
      "status": "OPEN"
    },
    {
      "id": 538,
      "name": "Racine Fire Department - Station 2",
      "address": "6009 Main Street",
      "city": "Racine",
      "state": "WI",
      "zip": "27402",
      "county": "Racine County",
      "type": "Paid",
      "phone": "",
      "latitude": 43.509668,
      "longitude": -92.89062,
      "status": "OPEN"
    },
    {
      "id": 539,
      "name": "Racine Volunteer Fire Department - Station 3",
      "address": "3010 Main Street",
      "city": "Racine",
      "state": "WI",
      "zip": "30317",
      "county": "Racine County",
      "type": "Career",
      "phone": "",
      "latitude": 45.590142,
      "longitude": -87.058564,
      "status": "OPEN"
    },
    {
      "id": 540,
      "name": "Cheyenne Fire District",
      "address": "3103 Main Street",
      "city": "Cheyenne",
      "state": "WY",
      "zip": "70964",
      "county": "Cheyenne County",
      "type": "Career",
      "phone": "",
      "latitude": 41.27753,
      "longitude": -105.739325,
      "status": "OPEN"
    },
    {
      "id": 541,
      "name": "Casper Volunteer Fire Department",
      "address": "2326 Main Street",
      "city": "Casper",
      "state": "WY",
      "zip": "56120",
      "county": "Casper County",
      "type": "Volunteer",
      "phone": "",
      "latitude": 41.372166,
      "longitude": -105.759742,
      "status": "OPEN"
    },
    {
      "id": 542,
      "name": "Casper Fire Department - Station 2",
      "address": "1225 Main Street",
      "city": "Casper",
      "state": "WY",
      "zip": "65606",
      "county": "Casper County",
      "type": "Paid",
      "phone": "",
      "latitude": 42.169991,
      "longitude": -107.75151,
      "status": "OPEN"
    },
    {
      "id": 543,
      "name": "Laramie Fire-Rescue",
      "address": "8864 Main Street",
      "city": "Laramie",
      "state": "WY",
      "zip": "83067",
      "county": "Laramie County",
      "type": "Volunteer",
      "phone": "",
      "latitude": 42.495848,
      "longitude": -109.728345,
      "status": "OPEN"
    },
    {
      "id": 544,
      "name": "Laramie Fire Protection District - Station 2",
      "address": "6969 Main Street",
      "city": "Laramie",
      "state": "WY",
      "zip": "74297",
      "county": "Laramie County",
      "type": "Combination",
      "phone": "",
      "latitude": 41.227872,
      "longitude": -107.289527,
      "status": "OPEN"
    },
    {
      "id": 545,
      "name": "Laramie Fire District - Station 3",
      "address": "413 Main Street",
      "city": "Laramie",
      "state": "WY",
      "zip": "21185",
      "county": "Laramie County",
      "type": "Volunteer",
      "phone": "",
      "latitude": 42.224327,
      "longitude": -107.30246,
      "status": "OPEN"
    },
    {
      "id": 546,
      "name": "Gillette Fire-Rescue",
      "address": "9323 Main Street",
      "city": "Gillette",
      "state": "WY",
      "zip": "65897",
      "county": "Gillette County",
      "type": "Paid",
      "phone": "",
      "latitude": 41.756421,
      "longitude": -109.115635,
      "status": "OPEN"
    },
    {
      "id": 547,
      "name": "Gillette Fire Department - Station 2",
      "address": "8510 Main Street",
      "city": "Gillette",
      "state": "WY",
      "zip": "94631",
      "county": "Gillette County",
      "type": "Combination",
      "phone": "",
      "latitude": 42.581013,
      "longitude": -107.589986,
      "status": "OPEN"
    },
    {
      "id": 548,
      "name": "Rock Springs Volunteer Fire Department",
      "address": "8112 Main Street",
      "city": "Rock Springs",
      "state": "WY",
      "zip": "51631",
      "county": "Rock Springs County",
      "type": "Paid",
      "phone": "",
      "latitude": 44.752969,
      "longitude": -104.72017,
      "status": "OPEN"
    },
    {
      "id": 549,
      "name": "Washington Fire Department",
      "address": "7915 Main Street",
      "city": "Washington",
      "state": "DC",
      "zip": "26156",
      "county": "Washington County",
      "type": "Volunteer",
      "phone": "",
      "latitude": 38.801645,
      "longitude": -77.050575,
      "status": "OPEN"
    }
  ]
}